[{"city": "Tongzhou New Town (\u901a\u5dde\u65b0\u57ce)", "pol": "pm25", "stamp": 1421406000, "aqi": "68", "lat": "39.886", "idx": 1117, "x": 461, "img": "_ARMA7P_ljJfkuqw66YCa5bee5paw5Z-O", "lon": "116.663", "utime": "Friday 19:00", "covered_area": 6.633819178192061}, {"city": "Changping Town (\u660c\u5e73\u9547)", "pol": "pm25", "stamp": 1421406000, "aqi": "60", "lat": "40.217", "idx": 1119, "x": 463, "img": "_e9oz_cmuNVbPZvQ83bn55dR2AA", "lon": "116.23", "utime": "Friday 19:00", "covered_area": 5.712390821727275}, {"city": "Gaobeidian EPA, Baoding (\u4fdd\u5b9a\u5e02\u9ad8\u7891\u5e97\u73af\u4fdd\u5c40)", "pol": "pm25", "stamp": 1421406000, "aqi": "137", "lat": "39.332", "idx": 737, "x": 4659, "img": "_c_az8khNSs3Uf7J_7tN1s57uaNJ_uXrG80UTn-6a_rxvPUh0Y4OGliYA", "lon": "115.88", "utime": "Friday 19:00", "covered_area": 6.446990963109734}, {"city": "Guan Party School, Langfang (\u5eca\u574a\u5e02\u56fa\u5b89\u515a\u6821)", "pol": "pm25", "stamp": 1421402400, "aqi": "68", "lat": "39.445", "idx": 1161, "x": 4674, "img": "_ASIA3f9DTjpIZWJlaS_lu4rlnYrluIIv5Zu65a6J5YWa5qChKCop", "lon": "116.305", "utime": "Friday 18:00", "covered_area": 6.640238241700058}, {"city": "Xianghe EPA, Langfang (\u5eca\u574a\u5e02\u9999\u6cb3\u73af\u4fdd\u5c40)", "pol": "pm25", "stamp": 1421402400, "aqi": "82", "lat": "39.766", "idx": 1166, "x": 4675, "img": "_ASUA2v9DTjpIZWJlaS_lu4rlnYrluIIv6aaZ5rKz546v5L-d5bGAKCop", "lon": "117.009", "utime": "Friday 18:00", "covered_area": 7.228866974910824}, {"city": "Huairou town (\u6000\u67d4\u9547)", "pol": "pm25", "stamp": 1421406000, "aqi": "52", "lat": "40.328", "idx": 1114, "x": 466, "img": "_e9oz_cmuNVbPGhqezZ_ycmo7AA", "lon": "116.628", "utime": "Friday 19:00", "covered_area": 5.859673489513073}, {"city": "The town of Miyun (\u5bc6\u4e91\u9547)", "pol": "pm25", "stamp": 1421406000, "aqi": "43", "lat": "40.37", "idx": 1122, "x": 467, "img": "_e9oz_cmuNVZP17c92TXx5dR2AA", "lon": "116.832", "utime": "Friday 19:00", "covered_area": 5.7715761973725135}, {"city": "Yanqing town (\u5ef6\u5e86\u9547)", "pol": "pm25", "stamp": 1421406000, "aqi": "48", "lat": "40.453", "idx": 1115, "x": 468, "img": "_e9oz_cmuNVZPd297uqvt5dR2AA", "lon": "115.972", "utime": "Friday 19:00", "covered_area": 5.383713633672324}, {"city": "Yongledianzhen, Tongzhou (\u4eac\u4e1c\u5357\u6c38\u4e50\u5e97)", "pol": "pm25", "stamp": 1421406000, "aqi": "78", "lat": "39.712", "idx": 1125, "x": 473, "img": "_e9oz_cmuNVZA_GTHnKe9059t2PFk54Snu6YDAA", "lon": "116.783", "utime": "Friday 19:00", "covered_area": 7.415082393569826}, {"city": "Shanghai (\u4e0a\u6d77)", "pol": "pm25", "stamp": 1421406000, "aqi": "200", "lat": "31.2047372", "idx": 1132, "x": 1437, "img": "Shanghai", "lon": "121.4489017", "utime": "Friday 19:00", "covered_area": 2.9712493142487593}, {"city": "Hongkou Liangcheng (\u8679\u53e3\u51c9\u57ce)", "pol": "pm25", "stamp": 1421406000, "aqi": "202", "lat": 31.3008, "idx": 870, "x": 485, "img": "_c_azCs5IzEvPSMzUfzFz59P-xU_bO5_O7wMA", "lon": 121.467, "utime": "Friday 19:00", "covered_area": 2.8838618539173004}, {"city": "Dianshan Lake (\u9752\u6d66\u6dc0\u5c71\u6e56)", "pol": "pm25", "stamp": 1421406000, "aqi": "190", "lat": 31.0935, "idx": 869, "x": 484, "img": "_c_azCs5IzEvPSMzU13o5d9KzrcuebW94unHjs53TAA", "lon": 120.978, "utime": "Friday 19:00", "covered_area": 4.36037402397689}, {"pol": "pm25", "img": "_c_azci9NzEtPyc9L13-5cNfTfduh1Ivu_qebpgMA", "lat": "22.809444", "x": 795, "sutime": "2015-01-16 12:00:00", "city": "Sh\u00f9nd\u00e9 s\u016bg\u01ceng, Shunde (\u987a\u5fb7\u987a\u5fb7\u82cf\u5c97)", "stamp": 1421380800, "aqi": "158", "idx": 857, "lon": "113.287778", "utime": "Friday 12:00", "covered_area": 5.382077458103812}, {"city": "Chengdu (\u6210\u90fd)", "pol": "pm25", "stamp": 1421406000, "aqi": "170", "lat": "30.6250145", "idx": 1134, "x": 1450, "img": "Chengdu", "lon": "104.0670559", "utime": "Friday 19:00", "covered_area": 2.444670305436882}, {"city": "Taiyuan Street, Shenyang (\u6c88\u9633\u592a\u539f\u8857)", "pol": "pm25", "stamp": 1421402400, "aqi": "171", "lat": "41.7972", "idx": 1177, "x": 1255, "img": "_c_azyk0t0H-2qePljM36T5eseto3_8XC6QA", "lon": "123.4", "utime": "Friday 18:00", "covered_area": 4.844188201771603}, {"city": "Changqing District Communist Party School, Jinan (\u6d4e\u5357\u957f\u6e05\u533a\u59d4\u515a\u6821)", "pol": "pm25", "stamp": 1421406000, "aqi": "290", "lat": "36.54861111", "idx": 880, "x": 510, "img": "_ASYA2f9DTjpTaGFuZ2Rvbmcv5rWO5Y2XL-mVv-a4heWMuuWnlOWFmuagoQ", "lon": "116.76516670", "utime": "Friday 19:00", "covered_area": 2.9328678849974166}, {"city": "Y\u01ceng k\u01d2u, Qingdao (\u9752\u5c9b\u4ef0\u53e3)", "pol": "pm25", "stamp": 1421402400, "aqi": "182", "lat": "36.240156", "idx": 934, "x": 519, "img": "_c_azCs5IzEtPyc9L1385d9LTTbP1n-ze8LR_MQA", "lon": "120.660697", "utime": "Friday 18:00", "covered_area": 1.4138467938014339}, {"city": "Huangdao District No. 1, Qingdao (\u9752\u5c9b\u9ec4\u5c9b\u533a1\u53f7)", "pol": "pm25", "stamp": 1421402400, "aqi": "181", "lat": "35.958797", "idx": 933, "x": 516, "img": "_c_azCs5IzEtPyc9L1385d9LTTbP1X-5uAVJPe3YZPu3fDgA", "lon": "120.185909", "utime": "Friday 18:00", "covered_area": 1.6394408126011815}, {"city": "Chengyang District No. 1, Qingdao (\u9752\u5c9b\u57ce\u9633\u533a1\u53f7)", "pol": "pm25", "stamp": 1421406000, "aqi": "209", "lat": "36.308156", "idx": 1104, "x": 523, "img": "_ASEA3v9DTjpTaGFuZ2Rvbmcv6Z2S5bKbL-WfjumYs-WMujHlj7c", "lon": "120.394920", "utime": "Friday 19:00", "covered_area": 1.4967909839304183}, {"pol": "pm25", "img": "_c_azCs5IzEtPyc9L13-2veVp7yz9p-1LnrZveLpxIwA", "lat": "36.66555556", "x": 526, "sutime": "2015-01-16 15:00:00", "city": "F\u00e8nghu\u00e1ng sh\u0101n, Zibo (\u6dc4\u535a\u51e4\u51f0\u5c71)", "stamp": 1421391600, "aqi": "296", "idx": 701, "lon": "117.92333330", "utime": "Friday 15:00", "covered_area": 5.063854521588186}, {"city": "X\u012bnq\u016b, Zibo (\u6dc4\u535a\u65b0\u533a)", "pol": "pm25", "stamp": 1421406000, "aqi": "212", "lat": "36.84333333", "idx": 1111, "x": 529, "img": "_c_azCs5IzEtPyc9L13-2veVp7yz9Z9M2PO3ZBQA", "lon": "118.0175", "utime": "Friday 19:00", "covered_area": 5.082946065965141}, {"city": "Linzi Putian Park, Zibo (\u6dc4\u535a\u4e34\u6dc4\u8386\u7530\u56ed)", "pol": "pm25", "stamp": 1421402400, "aqi": "173", "lat": "36.81972222", "idx": 1104, "x": 533, "img": "_c_azCs5IzEtPyc9L13-2veVp7yz9Jzu2AFkv-tqeT9nwdPZaAA", "lon": "118.30916670", "utime": "Friday 18:00", "covered_area": 4.977009687914519}, {"city": "City EPA, Zaozhuang (\u67a3\u5e84\u5e02\u73af\u4fdd\u5c40)", "pol": "pm25", "stamp": 1421406000, "aqi": "159", "lat": "34.81027778", "idx": 1149, "x": 544, "img": "_c_azCs5IzEtPyc9L1382b_HTXS36T3c0Pe9b_2T_3KcbGwA", "lon": "117.31472220", "utime": "Friday 19:00", "covered_area": 2.475189457058207}, {"city": "Taierzhuang EPA, Zaozhuang (\u67a3\u5e84\u53f0\u513f\u5e84\u73af\u4fdd\u5c40)", "pol": "pm25", "stamp": 1421406000, "aqi": "167", "lat": "34.58055556", "idx": 1131, "x": 542, "img": "_c_azCs5IzEtPyc9L1382b_HTXS36T_s3PG3ZD2Q971v_ZP_cpxsbAA", "lon": "117.73527780", "utime": "Friday 19:00", "covered_area": 3.1236544808299778}, {"city": "Sh\u00e8ngl\u00ec hospital, Dongying (\u4e1c\u8425\u80dc\u5229\u533b\u9662)", "pol": "pm25", "stamp": 1421402400, "aqi": "109", "lat": "37.47222222", "idx": 1095, "x": 552, "img": "_ASAA3_9DTjpTaGFuZ2Rvbmcv5Lic6JClL-iDnOWIqeWMu-mZog", "lon": "118.64083330", "utime": "Friday 18:00", "covered_area": 3.681126971883166}, {"city": "Gu\u01cengn\u00e1n reservoir, Dongying (\u4e1c\u8425\u5e7f\u5357\u6c34\u5e93)", "pol": "pm25", "stamp": 1421402400, "aqi": "97", "lat": "37.37805556", "idx": 1114, "x": 547, "img": "_ASAA3_9DTjpTaGFuZ2Rvbmcv5Lic6JClL-W5v-WNl-awtOW6kw", "lon": "118.81916670", "utime": "Friday 18:00", "covered_area": 3.625775463205157}, {"city": "Hekou  district, Dongying (\u4e1c\u8425\u6cb3\u53e3\u533a)", "pol": "pm25", "stamp": 1421402400, "aqi": "65", "lat": "37.88305556", "idx": 941, "x": 553, "img": "_c_azCs5IzEtPyc9L13-yY86LCUv1n23a_LR_8dOeXQA", "lon": "118.51638890", "utime": "Friday 18:00", "covered_area": 2.277502952398522}, {"city": "Fushan Monitoring Stations, Yantai (\u70df\u53f0\u798f\u5c71\u533a\u76d1\u6d4b\u7ad9)", "pol": "pm25", "stamp": 1421398800, "aqi": "168", "lat": "37.47141415", "idx": 1041, "x": 558, "img": "_ASYA2f9DTjpTaGFuZ2Rvbmcv54Of5Y-wL-emj-WxseWMuuebkea1i-ermQ", "lon": "121.25509260", "utime": "Friday 17:00", "covered_area": 1.2843901037357366}, {"city": "BDA zone B, Yantai (\u70df\u53f0\u5f00\u53d1\u533aB \u533a)", "pol": "pm25", "stamp": 1421402400, "aqi": "70", "lat": "37.60240665", "idx": 943, "x": 564, "img": "_c_azCs5IzEtPyc9L13_ePP9p_wb9p3sanvZPfNqzy0kBSAAA", "lon": "121.14216590", "utime": "Friday 18:00", "covered_area": 1.2106742216214772}, {"city": "BDA, Weifang (\u6f4d\u574a\u7ecf\u6d4e\u5f00\u53d1\u533a)", "pol": "pm25", "stamp": 1421402400, "aqi": "109", "lat": "36.71955556", "idx": 1120, "x": 567, "img": "_c_azCs5IzEtPyc9L13-2t_fp3C7957v7n23te7qn4Wn_xKc9uwA", "lon": "119.04816670", "utime": "Friday 18:00", "covered_area": 2.865846695669542}, {"pol": "pm25", "img": "_ASAA3_9DTjpTaGFuZ2Rvbmcv5r2N5Z2KL-mUpueoi-S4reWtpg", "lat": "36.77305556", "x": 574, "sutime": "2015-01-16 19:00:00", "city": "Jincheng Middle School, Weifang (\u6f4d\u574a\u9526\u7a0b\u4e2d\u5b66)", "stamp": 1421406000, "aqi": "114", "idx": 709, "lon": "119.10956670", "utime": "Friday 19:00", "covered_area": 2.8017740238706805}, {"city": "BDA Huojucheng, Jining (\u6d4e\u5b81\u5f00\u53d1\u533a\u706b\u70ac\u57ce)", "pol": "pm25", "stamp": 1421406000, "aqi": "193", "lat": "35.43677778", "idx": 1140, "x": 581, "img": "_ASYA2f9DTjpTaGFuZ2Rvbmcv5rWO5a6BL-W8gOWPkeWMuueBq-eCrOWfjg", "lon": "116.63761110", "utime": "Friday 19:00", "covered_area": 1.043688065122252}, {"city": "Transportation technical school, Taian (\u6cf0\u5b89\u4ea4\u901a\u6280\u6821)", "pol": "pm25", "stamp": 1421402400, "aqi": "188", "lat": "36.20194444", "idx": 952, "x": 587, "img": "_c_azCs5IzEtPyc9L13-2ecPTdZ36T3Ytedkw61lXw7MFCwE", "lon": "117.04111110", "utime": "Friday 18:00", "covered_area": 3.276189648919212}, {"city": "Lantian Hotel, Weihai (\u5a01\u6d77\u84dd\u5929\u5bbe\u9986)", "pol": "pm25", "stamp": 1421402400, "aqi": "157", "lat": "37.51363425", "idx": 1091, "x": 591, "img": "_ASAA3_9DTjpTaGFuZ2Rvbmcv5aiB5rW3L-iTneWkqeWuvummhg", "lon": "122.14125740", "utime": "Friday 18:00", "covered_area": 0.7622117468215963}, {"city": "Port Authority, Rizhao (\u65e5\u7167\u6e2f\u52a1\u5c40)", "pol": "pm25", "stamp": 1421406000, "aqi": "236", "lat": "35.38166667", "idx": 902, "x": 596, "img": "_c_azCs5IzEtPyc9L1382fenz1uX6z3asf9q18OnGBgA", "lon": "119.54861110", "utime": "Friday 19:00", "covered_area": 1.7293386291496273}, {"city": "Risheng International School, Laiwu (\u83b1\u829c\u65e5\u665f\u56fd\u9645\u5b66\u6821)", "pol": "pm25", "stamp": 1421402400, "aqi": "242", "lat": "36.20805556", "idx": 962, "x": 606, "img": "_ASYA2f9DTjpTaGFuZ2Rvbmcv6I6x6IqcL-aXpeaZn-WbvemZheWtpuagoQ", "lon": "117.7250", "utime": "Friday 18:00", "covered_area": 4.022535108682547}, {"city": "Nursing home, Laiwu (\u83b1\u829c\u8001\u5e74\u516c\u5bd3)", "pol": "pm25", "stamp": 1421402400, "aqi": "251", "lat": "36.26611111", "idx": 1094, "x": 604, "img": "_c_azCs5IzEtPyc9L13_Rt_FF1xz9Fw2NT3duedq65un6yQA", "lon": "117.64694440", "utime": "Friday 18:00", "covered_area": 4.170913604224834}, {"city": "Gangcheng EPA, Laiwu (\u83b1\u829c\u94a2\u57ce\u533a\u73af\u4fdd\u5c40)", "pol": "pm25", "stamp": 1421406000, "aqi": "210", "lat": "36.06694444", "idx": 905, "x": 607, "img": "_ASYA2f9DTjpTaGFuZ2Rvbmcv6I6x6IqcL-mSouWfjuWMuueOr-S_neWxgA", "lon": "117.86611110", "utime": "Friday 19:00", "covered_area": 3.4027241329985882}, {"city": "Jianghua vehicule center, Linyi (\u4e34\u6c82\u6c5f\u534e\u6c7d\u8d38)", "pol": "pm25", "stamp": 1421406000, "aqi": "333", "lat": "35.01055556", "idx": 1132, "x": 615, "img": "_ASAA3_9DTjpTaGFuZ2Rvbmcv5Li05rKCL-axn-WNjuaxvei0uA", "lon": "118.43", "utime": "Friday 19:00", "covered_area": 2.144533676641451}, {"city": "Supervision Station, Dezhou (\u5fb7\u5dde\u76d1\u7406\u7ad9)", "pol": "pm25", "stamp": 1421402400, "aqi": "168", "lat": "37.44888889", "idx": 956, "x": 619, "img": "_c_azCs5IzEtPyc9L13-6b_vT7fP0n8-e-HxC2_PVMwE", "lon": "116.31888890", "utime": "Friday 18:00", "covered_area": 4.390339816737354}, {"city": "City committee communist party school, Liaocheng (\u804a\u57ce\u5e02\u59d4\u515a\u6821)", "pol": "pm25", "stamp": 1421406000, "aqi": "271", "lat": "36.47944444", "idx": 1169, "x": 624, "img": "_c_azCs5IzEtPyc9L13_R2PV0fp_-0x1NT5dPedo669mChQA", "lon": "115.98361110", "utime": "Friday 19:00", "covered_area": 3.224956792775659}, {"city": "Yinhe logistics company, Binzhou (\u6ee8\u5dde\u94f6\u6cb3\u7269\u6d41)", "pol": "pm25", "stamp": 1421402400, "aqi": "91", "lat": "37.35555556", "idx": 960, "x": 632, "img": "_ASAA3_9DTjpTaGFuZ2Rvbmcv5ruo5beeL-mTtuays-eJqea1gQ", "lon": "117.9375", "utime": "Friday 18:00", "covered_area": 3.6374326943391893}, {"city": "M\u01d4d\u0101n high-tech zone, Heze (\u83cf\u6cfd\u7261\u4e39\u9ad8\u65b0\u533a)", "pol": "pm25", "stamp": 1421406000, "aqi": "197", "lat": "35.24361111", "idx": 1148, "x": 637, "img": "_ASMA3P9DTjpTaGFuZ2Rvbmcv6I-P5rO9L-eJoeS4uemrmOaWsOWMug", "lon": "115.40861110", "utime": "Friday 19:00", "covered_area": 2.6959715658407593}, {"city": "Heze University, Heze (\u83cf\u6cfd\u83cf\u6cfd\u5b66\u9662)", "pol": "pm25", "stamp": 1421402400, "aqi": "181", "lat": "35.27", "idx": 965, "x": 639, "img": "_c_azCs5IzEtPyc9L13_R3_9s814o9XTtspczFwEA", "lon": "115.4550", "utime": "Friday 18:00", "covered_area": 2.6193698501722498}, {"city": "Yu\u00e1n sh\u00ec zh\u00f9 ji\u00e0n j\u00fa, Shijiazhuang (\u77f3\u5bb6\u5e84\u5e02\u5143\u6c0f\u4f4f\u5efa\u5c40)", "pol": "pm25", "stamp": 1421402400, "aqi": "99", "lat": "37.766", "idx": 1163, "x": 4628, "img": "_ASgA1_9DTjpIZWJlaS_nn7PlrrbluoTluIIv5YWD5rCP5L2P5bu65bGAKCop", "lon": "114.517", "utime": "Friday 18:00", "covered_area": 4.839312252303562}, {"city": "Leidazhanzi Station, Tangshan (\u5510\u5c71\u5e02\u96f7\u8fbe\u7ad9\u5b50\u7ad9)", "pol": "pm25", "stamp": 1421406000, "aqi": "166", "lat": "39.643", "idx": 725, "x": 653, "img": "_c_az8khNSs3UfzplwtONG5_uaNJ_OXv7i337nq-e-XTtBCAJAA", "lon": "118.144", "utime": "Friday 19:00", "covered_area": 6.4115126312429105}, {"city": "F\u01d4 n\u00edng d\u01cengxi\u00e0o, Qinhuangdao (\u79e6\u7687\u5c9b\u5e02\u629a\u5b81\u515a\u6821)", "pol": "pm25", "stamp": 1421406000, "aqi": "226", "lat": "39.882", "idx": 757, "x": 4646, "img": "_ASUA2v9DTjpIZWJlaS_np6bnmoflspvluIIv5oqa5a6B5YWa5qChKCop", "lon": "119.251", "utime": "Friday 19:00", "covered_area": 5.204517186508384}, {"city": "Shanhai Pass, Qinhuangdao (\u79e6\u7687\u5c9b\u5e02\u7b2c\u4e00\u5173)", "pol": "pm25", "stamp": 1421402400, "aqi": "127", "lat": "40.018", "idx": 969, "x": 657, "img": "_AR8A4P9DTjpIZWJlaS_np6bnmoflspvluIIv56ys5LiA5YWz", "lon": "119.762", "utime": "Friday 18:00", "covered_area": 3.3465327342086555}, {"city": "l\u00edn zh\u0101ng xi\u00e0n s\u0101n zh\u014dng, Handan (\u90af\u90f8\u5e02\u4e34\u6f33\u53bf\u4e09\u4e2d)", "pol": "pm25", "stamp": 1421406000, "aqi": "206", "lat": "36.33", "idx": 761, "x": 5615, "img": "_c_az8khNSs3Uf9m0_mXzjqc7mvSjX2xofrF-6pMda2Of7NjybM_mp337n-zoBPI1tDQB", "lon": "114.601", "utime": "Friday 19:00", "covered_area": 5.438918935826432}, {"city": "Yongnian government guesthouse, Handan (\u90af\u90f8\u5e02\u6c38\u5e74\u653f\u5e9c\u5bbe\u9986)", "pol": "pm25", "stamp": 1421402400, "aqi": "193", "lat": "36.783", "idx": 1160, "x": 4650, "img": "_ASgA1_9DTjpIZWJlaS_pgq_pg7jluIIv5rC45bm05pS_5bqc5a6-6aaGKCop", "lon": "114.497", "utime": "Friday 18:00", "covered_area": 5.360199502626996}, {"city": "Surface water Company, Baoding (\u4fdd\u5b9a\u5e02\u5730\u8868\u6c34\u5382)", "pol": "pm25", "stamp": 1421402400, "aqi": "168", "lat": "38.842", "idx": 1154, "x": 669, "img": "_AR8A4P9DTjpIZWJlaS_kv53lrprluIIv5Zyw6KGo5rC05Y6C", "lon": "115.461", "utime": "Friday 18:00", "covered_area": 7.071175317557259}, {"city": "Century Compound, Zhangjiakou (\u5f20\u5bb6\u53e3\u5e02\u4e16\u7eaa\u8c6a\u56ed)", "pol": "pm25", "stamp": 1421406000, "aqi": "114", "lat": "40.769", "idx": 753, "x": 674, "img": "_ASIA3f9DTjpIZWJlaS_lvKDlrrblj6PluIIv5LiW57qq6LGq5Zut", "lon": "114.903", "utime": "Friday 19:00", "covered_area": 5.497428172528157}, {"city": "Cultural Center, Chengde (\u627f\u5fb7\u5e02\u6587\u5316\u4e2d\u5fc3)", "pol": "pm25", "stamp": 1421406000, "aqi": "85", "lat": "40.973", "idx": 728, "x": 680, "img": "_AR8A4P9DTjpIZWJlaS_mib_lvrfluIIv5paH5YyW5Lit5b-D", "lon": "117.818", "utime": "Friday 19:00", "covered_area": 3.9856579455266097}, {"city": "Municipal EPB, Cangzhou (\u6ca7\u5dde\u5e02\u6ca7\u5dde\u5e02\u73af\u4fdd\u5c40)", "pol": "pm25", "stamp": 1421402400, "aqi": "167", "lat": "38.323", "idx": 1156, "x": 684, "img": "_c_az8khNSs3Uf7Zp-dPt857uaEKwnvetf7J_7tONDQA", "lon": "116.871", "utime": "Friday 18:00", "covered_area": 5.3410442559704325}, {"city": "Zaoqiang EPA, Hengshui (\u8861\u6c34\u5e02\u67a3\u5f3a\u53bf\u73af\u4fdd\u5c40)", "pol": "pm25", "stamp": 1421402400, "aqi": "172", "lat": "37.52", "idx": 986, "x": 5681, "img": "_ATMAzP9DTjpIZWJlaS_ooaHmsLTluIIvW-iwg-ivleS4rV3mnqPlvLrljr_njq_kv53lsYAoKik", "lon": "115.709", "utime": "Friday 18:00", "covered_area": 5.4972859322777445}, {"pol": "pm25", "img": "_ATMAzP9DTjpIZWJlaS_ooaHmsLTluIIvW-iwg-ivleS4rV3ppbbpmLPljr_njq_kv53lsYAoKik", "lat": "38.23", "x": 5684, "sutime": "2015-01-16 19:00:00", "city": "Raoyang EPA , Hengshui (\u8861\u6c34\u5e02\u9976\u9633\u53bf\u73af\u4fdd\u5c40)", "stamp": 1421406000, "aqi": "244", "idx": 746, "lon": "115.735", "utime": "Friday 19:00", "covered_area": 6.617342460327472}, {"city": "Wuji EPA, Shijiazhuang (\u77f3\u5bb6\u5e84\u5e02\u65e0\u6781\u73af\u4fdd\u5c40)", "pol": "pm25", "stamp": 1421406000, "aqi": "184", "lat": "38.178", "idx": 731, "x": 4624, "img": "_ASgA1_9DTjpIZWJlaS_nn7PlrrbluoTluIIv5peg5p6B546v5L-d5bGAKCop", "lon": "114.991", "utime": "Friday 19:00", "covered_area": 6.4089125274937935}, {"pol": "pm25", "img": "_AS4A0f9DTjpIZWJlaS_nn7PlrrbluoTluIIv6KGM5ZSQ5Y6_5aeU5Yqe5YWs5qW8KCop", "lat": "38.444", "x": 4634, "sutime": "2015-01-16 19:00:00", "city": "X\u00edng t\u00e1ng xi\u00e0nw\u011bi b\u00e0ng\u014dng l\u00f3u, Shijiazhuang (\u77f3\u5bb6\u5e84\u5e02\u884c\u5510\u53bf\u59d4\u529e\u516c\u697c)", "stamp": 1421406000, "aqi": "114", "idx": 734, "lon": "114.56", "utime": "Friday 19:00", "covered_area": 5.847557861940334}, {"city": "Cultural centers within the mound, Xingtai (\u90a2\u53f0\u5e02\u5185\u4e18\u6587\u5316\u6d3b\u52a8\u4e2d\u5fc3)", "pol": "pm25", "stamp": 1421402400, "aqi": "167", "lat": "37.293", "idx": 1136, "x": 4652, "img": "_AS4A0f9DTjpIZWJlaS_pgqLlj7DluIIv5YaF5LiY5paH5YyW5rS75Yqo5Lit5b-DKCop", "lon": "114.519", "utime": "Friday 18:00", "covered_area": 4.971483910982123}, {"city": "Jingxing Bureau of Meteorology, Shijiazhuang (\u77f3\u5bb6\u5e84\u5e02\u4e95\u9649\u53bf\u6c14\u8c61\u5c40)", "pol": "pm25", "stamp": 1421402400, "aqi": "95", "lat": "38.038", "idx": 1164, "x": 4630, "img": "_ASsA1P9DTjpIZWJlaS_nn7PlrrbluoTluIIv5LqV6ZmJ5Y6_5rCU6LGh5bGAKCop", "lon": "114.152", "utime": "Friday 18:00", "covered_area": 4.487781539139524}, {"city": "Pingshan Ye River, Shijiazhuang (\u77f3\u5bb6\u5e84\u5e02\u5e73\u5c71\u51b6\u6cb3)", "pol": "pm25", "stamp": 1421402400, "aqi": "74", "lat": "38.266", "idx": 1149, "x": 4632, "img": "_ASUA2v9DTjpIZWJlaS_nn7PlrrbluoTluIIv5bmz5bGx5Ya25rKzKCop", "lon": "114.204", "utime": "Friday 18:00", "covered_area": 4.728190805172165}, {"city": "Lu\u00e1n xi\u00e0n d\u00ec y\u012b zh\u014dngxu\u00e9, Tangshan (\u5510\u5c71\u5e02\u6ee6\u53bf\u7b2c\u4e00\u4e2d\u5b66)", "pol": "pm25", "stamp": 1421402400, "aqi": "282", "lat": "39.747", "idx": 1164, "x": 5610, "img": "_ATMAzP9DTjpIZWJlaS_llJDlsbHluIIvW-iwg-ivleS4rV3mu6bljr_nrKzkuIDkuK3lraYoKik", "lon": "118.71", "utime": "Friday 18:00", "covered_area": 6.134424474703684}, {"city": "Fengrun City Hall, Tangshan (\u5510\u5c71\u5e02\u4e30\u6da6\u533a\u653f\u5e9c)", "pol": "pm25", "stamp": 1421402400, "aqi": "122", "lat": "39.839", "idx": 1152, "x": 4639, "img": "_ASUA2v9DTjpIZWJlaS_llJDlsbHluIIv5Liw5ram5Yy65pS_5bqcKCop", "lon": "118.169", "utime": "Friday 18:00", "covered_area": 6.5719251604770035}, {"city": "Qianan No.1 middle school, Tangshan (\u5510\u5c71\u5e02\u8fc1\u5b89\u4e00\u4e2d)", "pol": "pm25", "stamp": 1421406000, "aqi": "136", "lat": "40.003", "idx": 734, "x": 4643, "img": "_ASIA3f9DTjpIZWJlaS_llJDlsbHluIIv6L-B5a6J5LiA5LitKCop", "lon": "118.711", "utime": "Friday 19:00", "covered_area": 6.392946623690617}, {"city": "Qinglong EPA, Qinhuangdao (\u79e6\u7687\u5c9b\u5e02\u9752\u9f99\u73af\u4fdd\u5c40)", "pol": "pm25", "stamp": 1421402400, "aqi": "124", "lat": "40.418", "idx": 1171, "x": 4644, "img": "_ASgA1_9DTjpIZWJlaS_np6bnmoflspvluIIv6Z2S6b6Z546v5L-d5bGAKCop", "lon": "118.952", "utime": "Friday 18:00", "covered_area": 5.253798427370429}, {"city": "Changli EPA, Qinhuangdao (\u79e6\u7687\u5c9b\u5e02\u660c\u9ece\u73af\u4fdd\u5c40)", "pol": "pm25", "stamp": 1421402400, "aqi": "212", "lat": "39.713", "idx": 1155, "x": 4645, "img": "_ASgA1_9DTjpIZWJlaS_np6bnmoflspvluIIv5piM6buO546v5L-d5bGAKCop", "lon": "119.167", "utime": "Friday 18:00", "covered_area": 5.003489370306911}, {"city": "Fengfeng mine Inland Revenue Department, Handan (\u90af\u90f8\u5e02\u5cf0\u5cf0\u77ff\u533a\u5730\u7a0e\u5c40)", "pol": "pm25", "stamp": 1421402400, "aqi": "222", "lat": "36.423", "idx": 1158, "x": 4647, "img": "_c_az8khNSs3Uf9m0_mXzjqc7mvSfbt4ARM_n73_as-vpnA3PV_Q93digoaUJAA", "lon": "114.24", "utime": "Friday 18:00", "covered_area": 5.175460661985772}, {"city": "Shexian EPA, Handan (\u90af\u90f8\u5e02\u6d89\u53bf\u76d1\u6d4b\u7ad9)", "pol": "pm25", "stamp": 1421406000, "aqi": "244", "lat": "36.589", "idx": 735, "x": 4648, "img": "_ASUA2v9DTjpIZWJlaS_pgq_pg7jluIIv5raJ5Y6_55uR5rWL56uZKCop", "lon": "113.686", "utime": "Friday 19:00", "covered_area": 2.8775772177000345}, {"city": "r\u00f3ng ch\u00e9ng xi\u00e0n hu\u00e1nj\u00ecng b\u01ceoh\u00f9 j\u00fa, Baoding (\u4fdd\u5b9a\u5e02\u5bb9\u57ce\u53bf\u73af\u5883\u4fdd\u62a4\u5c40)", "pol": "pm25", "stamp": 1421402400, "aqi": "151", "lat": "39.048", "idx": 1173, "x": 5645, "img": "_ATkAxv9DTjpIZWJlaS_kv53lrprluIIvW-iwg-ivleS4rV3lrrnln47ljr_njq_looPkv53miqTlsYAoKik", "lon": "115.868", "utime": "Friday 18:00", "covered_area": 6.765538860042918}, {"pol": "pm25", "img": "_ATAAz_9DTjpIZWJlaS_kv53lrprluIIvW-iwg-ivleS4rV3llJDljr_mlL_lupzmpbwoKik", "lat": "38.748", "x": 5643, "sutime": "2015-01-16 19:00:00", "city": "t\u00e1ng xi\u00e0n zh\u00e8ngf\u01d4 l\u00f3u, Baoding (\u4fdd\u5b9a\u5e02\u5510\u53bf\u653f\u5e9c\u697c)", "stamp": 1421406000, "aqi": "132", "idx": 741, "lon": "114.976", "utime": "Friday 19:00", "covered_area": 6.780181420783029}, {"city": "Xu\u0101nhu\u00e0 q\u016b j\u016bny\u00edng f\u00e8nghu\u00e1ng ch\u00e9ng, Zhangjiakou (\u5f20\u5bb6\u53e3\u5e02\u5ba3\u5316\u533a\u519b\u8425\u51e4\u51f0\u57ce)", "pol": "pm25", "stamp": 1421406000, "aqi": "78", "lat": "40.615", "idx": 758, "x": 4661, "img": "_ATEAzv9DTjpIZWJlaS_lvKDlrrblj6PluIIv5a6j5YyW5Yy65Yab6JCl5Yek5Yew5Z-OKCop", "lon": "115.106", "utime": "Friday 19:00", "covered_area": 5.515968742399397}, {"pol": "pm25", "img": "_ASsA1P9DTjpIZWJlaS_lvKDlrrblj6PluIIv5LiL6Iqx5Zut546v5L-d5bGAKCop", "lat": "40.508", "x": 4662, "sutime": "2015-01-16 19:00:00", "city": "Xiahuayuan EPA, Zhangjiakou (\u5f20\u5bb6\u53e3\u5e02\u4e0b\u82b1\u56ed\u73af\u4fdd\u5c40)", "stamp": 1421406000, "aqi": "74", "idx": 736, "lon": "115.296", "utime": "Friday 19:00", "covered_area": 5.232361067464359}, {"city": "Huaian EPA, Zhangjiakou (\u5f20\u5bb6\u53e3\u5e02\u6000\u5b89\u73af\u4fdd\u5c40)", "pol": "pm25", "stamp": 1421402400, "aqi": "50", "lat": "40.68", "idx": 1162, "x": 4663, "img": "_ASgA1_9DTjpIZWJlaS_lvKDlrrblj6PluIIv5oCA5a6J546v5L-d5bGAKCop", "lon": "114.392", "utime": "Friday 18:00", "covered_area": 4.484497378124856}, {"city": "Ch\u00ecch\u00e9ng b\u011bish\u0101n, Zhangjiakou (\u5f20\u5bb6\u53e3\u5e02\u8d64\u57ce\u5317\u5c71)", "pol": "pm25", "stamp": 1421402400, "aqi": "57", "lat": "40.919", "idx": 1178, "x": 4665, "img": "_ASUA2v9DTjpIZWJlaS_lvKDlrrblj6PluIIv6LWk5Z-O5YyX5bGxKCop", "lon": "115.838", "utime": "Friday 18:00", "covered_area": 4.732004803767151}, {"city": "x\u012bngl\u00f3ng ku\u00e0ngy\u00e8 zh\u0101od\u00e0isu\u01d2, Chengde (\u627f\u5fb7\u5e02\u5174\u9686\u77ff\u4e1a\u62db\u5f85\u6240)", "pol": "pm25", "stamp": 1421402400, "aqi": "114", "lat": "40.552", "idx": 1202, "x": 5665, "img": "_ATYAyf9DTjpIZWJlaS_mib_lvrfluIIvW-iwg-ivleS4rV3lhbTpmobnn7_kuJrmi5vlvoXmiYAoKik", "lon": "117.669", "utime": "Friday 18:00", "covered_area": 5.338673124846996}, {"city": "Luanping EPA, Chengde (\u627f\u5fb7\u5e02\u6ee6\u5e73\u73af\u4fdd\u5c40)", "pol": "pm25", "stamp": 1421402400, "aqi": "72", "lat": "40.949", "idx": 1179, "x": 4668, "img": "_ASUA2v9DTjpIZWJlaS_mib_lvrfluIIv5rum5bmz546v5L-d5bGAKCop", "lon": "117.344", "utime": "Friday 18:00", "covered_area": 3.8576315683373634}, {"city": "Fengning County City Hall, Chengde (\u627f\u5fb7\u5e02\u4e30\u5b81\u53bf\u653f\u5e9c)", "pol": "pm25", "stamp": 1421402400, "aqi": "61", "lat": "41.215", "idx": 1180, "x": 4669, "img": "_ASUA2v9DTjpIZWJlaS_mib_lvrfluIIv5Liw5a6B5Y6_5pS_5bqcKCop", "lon": "116.652", "utime": "Friday 18:00", "covered_area": 3.1296873893254977}, {"city": "d\u014dng gu\u0101ng xi\u00e0n ti\u011b f\u00f3s\u00ec, Cangzhou (\u6ca7\u5dde\u5e02\u4e1c\u5149\u53bf\u94c1\u4f5b\u5bfa)", "pol": "pm25", "stamp": 1421402400, "aqi": "151", "lat": "37.872", "idx": 1204, "x": 5670, "img": "_ATMAzP9DTjpIZWJlaS_msqflt57luIIvW-iwg-ivleS4rV3kuJzlhYnljr_pk4HkvZvlr7ooKik", "lon": "116.533", "utime": "Friday 18:00", "covered_area": 5.29434176352458}, {"pol": "pm25", "img": "_ATAAz_9DTjpIZWJlaS_msqflt57luIIvW-iwg-ivleS4rV3ogoPlroHljr_mlL_lupwoKik", "lat": "38.423", "x": 5673, "sutime": "2015-01-16 19:00:00", "city": "s\u00f9 n\u00edngxi\u00e0n zh\u00e8ngf\u01d4, Cangzhou (\u6ca7\u5dde\u5e02\u8083\u5b81\u53bf\u653f\u5e9c)", "stamp": 1421406000, "aqi": "185", "idx": 743, "lon": "115.823", "utime": "Friday 19:00", "covered_area": 7.029756996364604}, {"city": "Huanghua Finance Bureau Training Center, Cangzhou (\u6ca7\u5dde\u5e02\u9ec4\u9a85\u8d22\u653f\u5c40\u57f9\u8bad\u4e2d\u5fc3)", "pol": "pm25", "stamp": 1421402400, "aqi": "93", "lat": "38.377", "idx": 1160, "x": 4673, "img": "_ATEAzv9DTjpIZWJlaS_msqflt57luIIv6buE6aqF6LSi5pS_5bGA5Z-56K6t5Lit5b-DKCop", "lon": "117.337", "utime": "Friday 18:00", "covered_area": 4.455538081055663}, {"city": "B\u00e0 zh\u014du sh\u00f9n d\u00e1 r\u00e1nq\u00ec, Langfang (\u5eca\u574a\u5e02\u9738\u5dde\u987a\u8fbe\u71c3\u6c14)", "pol": "pm25", "stamp": 1421406000, "aqi": "109", "lat": "39.132", "idx": 759, "x": 4678, "img": "_ASgA1_9DTjpIZWJlaS_lu4rlnYrluIIv6Zy45bee6aG66L6-54eD5rCUKCop", "lon": "116.398", "utime": "Friday 19:00", "covered_area": 6.857726691998696}, {"city": "Yutian County , Tangshan (\u5510\u5c71\u5e02\u7389\u7530\u53bf\u653f\u5e9c)", "pol": "pm25", "stamp": 1421402400, "aqi": "95", "lat": "39.907", "idx": 1185, "x": 5613, "img": "_ATAAz_9DTjpIZWJlaS_llJDlsbHluIIvW-iwg-ivleS4rV3njonnlLDljr_mlL_lupwoKik", "lon": "117.745", "utime": "Friday 18:00", "covered_area": 6.813687030717533}, {"city": "Lulong County Bureau of Meteorology , Qinhuangdao (\u79e6\u7687\u5c9b\u5e02\u5362\u9f99\u53bf\u6c14\u8c61\u5c40)", "pol": "pm25", "stamp": 1421406000, "aqi": "257", "lat": "39.9", "idx": 760, "x": 5614, "img": "_ATYAyf9DTjpIZWJlaS_np6bnmoflspvluIIvW-iwg-ivleS4rV3ljaLpvpnljr_msJTosaHlsYAoKik", "lon": "118.899", "utime": "Friday 19:00", "covered_area": 6.119082605458885}, {"pol": "pm25", "img": "_c_az8khNSs3Uf9m0_mXzjqc7mvSjX2xofrF-6pMda2Of7tz_dOfmp337n-xoAPI1tDQB", "lat": "36.482", "x": 5621, "sutime": "2015-01-16 19:00:00", "city": "gu\u01ceng p\u00edng xi\u00e0n y\u012b zh\u014dng, Handan (\u90af\u90f8\u5e02\u5e7f\u5e73\u53bf\u4e00\u4e2d)", "stamp": 1421406000, "aqi": "287", "idx": 739, "lon": "114.952", "utime": "Friday 19:00", "covered_area": 5.763025848970247}, {"city": "qi\u016b xi\u00e0n zh\u00e8ngf\u01d4, Handan (\u90af\u90f8\u5e02\u90b1\u53bf\u653f\u5e9c)", "pol": "pm25", "stamp": 1421406000, "aqi": "280", "lat": "36.811", "idx": 739, "x": 5619, "img": "_AS0A0v9DTjpIZWJlaS_pgq_pg7jluIIvW-iwg-ivleS4rV3pgrHljr_mlL_lupwoKik", "lon": "115.181", "utime": "Friday 19:00", "covered_area": 5.734443090905522}, {"city": "gu\u01cen t\u00e1o xi\u00e0n y\u01d2ng j\u00ec l\u00f9 xi\u01ceoxu\u00e9, Handan (\u90af\u90f8\u5e02\u9986\u9676\u53bf\u6c38\u6d4e\u8def\u5c0f\u5b66)", "pol": "pm25", "stamp": 1421402400, "aqi": "261", "lat": "36.541", "idx": 977, "x": 5622, "img": "_ATkAxv9DTjpIZWJlaS_pgq_pg7jluIIvW-iwg-ivleS4rV3ppobpmbbljr_msLjmtY7ot6_lsI_lraYoKik", "lon": "115.3", "utime": "Friday 18:00", "covered_area": 5.164958893465437}, {"city": "l\u00f3ng y\u00e1o xi\u00e0n hu\u00e1nb\u01ceo j\u00fa, Xingtai (\u90a2\u53f0\u5e02\u9686\u5c27\u53bf\u73af\u4fdd\u5c40)", "pol": "pm25", "stamp": 1421402400, "aqi": "114", "lat": "37.354", "idx": 1169, "x": 5627, "img": "_ATMAzP9DTjpIZWJlaS_pgqLlj7DluIIvW-iwg-ivleS4rV3pmoblsKfljr_njq_kv53lsYAoKik", "lon": "114.752", "utime": "Friday 18:00", "covered_area": 5.179930346921008}, {"pol": "pm25", "img": "_AT8AwP9DTjpIZWJlaS_pgqLlj7DluIIvW-iwg-ivleS4rV3muIXmsrPljr_pnZLlsJHlubTmtLvliqjkuK3lv4MoKik", "lat": "37.078", "x": 5636, "sutime": "2015-01-16 19:00:00", "city": "q\u012bngh\u00e9 xi\u00e0n q\u012bngsh\u00e0oni\u00e1n hu\u00f3d\u00f2ng zh\u014dngx\u012bn, Xingtai (\u90a2\u53f0\u5e02\u6e05\u6cb3\u53bf\u9752\u5c11\u5e74\u6d3b\u52a8\u4e2d\u5fc3)", "stamp": 1421406000, "aqi": "302", "idx": 740, "lon": "115.678", "utime": "Friday 19:00", "covered_area": 5.026515968816777}, {"city": "y\u00ec xi\u00e0n hu\u00e1nj\u00ecng b\u01ceoh\u00f9 j\u00fa, Baoding (\u4fdd\u5b9a\u5e02\u6613\u53bf\u73af\u5883\u4fdd\u62a4\u5c40)", "pol": "pm25", "stamp": 1421406000, "aqi": "184", "lat": "39.347", "idx": 763, "x": 5648, "img": "_ATYAyf9DTjpIZWJlaS_kv53lrprluIIvW-iwg-ivleS4rV3mmJPljr_njq_looPkv53miqTlsYAoKik", "lon": "115.479", "utime": "Friday 19:00", "covered_area": 5.514257450657404}, {"city": "f\u00f9 p\u00edng xi\u00e0n hu\u00e1nb\u01ceo j\u00fa, Baoding (\u4fdd\u5b9a\u5e02\u961c\u5e73\u53bf\u73af\u4fdd\u5c40)", "pol": "pm25", "stamp": 1421402400, "aqi": "112", "lat": "38.851", "idx": 1172, "x": 5641, "img": "_c_az8khNSs3Uf7J_7tN1s57uaNKPfrGh-cX6qU92rI19OWPO052bn_btf963HqRgY4OGliYA", "lon": "114.194", "utime": "Friday 18:00", "covered_area": 3.7282166691492007}, {"city": "l\u00e1i yu\u00e1n xi\u00e0n hu\u00e1nb\u01ceo j\u00fa, Baoding (\u4fdd\u5b9a\u5e02\u6d9e\u6e90\u53bf\u73af\u4fdd\u5c40)", "pol": "pm25", "stamp": 1421406000, "aqi": "161", "lat": "39.359", "idx": 743, "x": 5646, "img": "_c_az8khNSs3Uf7J_7tN1s57uaNKPfrGh-cX6qU92rI19tm3es10Tnvbtf963HqRgY4OGliYA", "lon": "114.698", "utime": "Friday 19:00", "covered_area": 3.9931944752023423}, {"city": "\u0101ngu\u00f3 sh\u00ec zh\u00e8ngf\u01d4, Baoding (\u4fdd\u5b9a\u5e02\u5b89\u56fd\u5e02\u653f\u5e9c)", "pol": "pm25", "stamp": 1421406000, "aqi": "204", "lat": "38.428", "idx": 764, "x": 5654, "img": "_ATAAz_9DTjpIZWJlaS_kv53lrprluIIvW-iwg-ivleS4rV3lronlm73luILmlL_lupwoKik", "lon": "115.322", "utime": "Friday 19:00", "covered_area": 7.066247103571422}, {"city": "sh\u00f9n p\u00edng xi\u00e0n hu\u00e1nb\u01ceo j\u00fa, Baoding (\u4fdd\u5b9a\u5e02\u987a\u5e73\u53bf\u73af\u4fdd\u5c40)", "pol": "pm25", "stamp": 1421402400, "aqi": "80", "lat": "38.85", "idx": 1174, "x": 5651, "img": "_c_az8khNSs3Uf7J_7tN1s57uaNKPfrGh-cX6qU92rI19uXDX052bn_btf963HqRgY4OGliYA", "lon": "115.15", "utime": "Friday 18:00", "covered_area": 6.955866447662007}, {"city": "Wan county Environmental Protection Agency , Zhangjiakou (\u5f20\u5bb6\u53e3\u5e02\u4e07\u5168\u53bf\u73af\u4fdd\u5c40)", "pol": "pm25", "stamp": 1421402400, "aqi": "80", "lat": "40.769", "idx": 1178, "x": 5662, "img": "_ATYAyf9DTjpIZWJlaS_lvKDlrrblj6PluIIvW-iwg-ivleS4rV3kuIflhajljr_njq_kv53lsYAoKik", "lon": "114.744", "utime": "Friday 18:00", "covered_area": 5.236469482081444}, {"pol": "pm25", "img": "_c_az8khNSs3Uf7pnwdN12572L366o0k_-sWG5hfrpz7ZsTb26a7tT_bPfdq3_3nfehBjY4OGliYA", "lat": "41.836", "x": 5657, "sutime": "2015-01-16 19:00:00", "city": "Kangbao County Environmental Protection Agency , Zhangjiakou (\u5f20\u5bb6\u53e3\u5e02\u5eb7\u4fdd\u53bf\u73af\u4fdd\u5c40)", "stamp": 1421406000, "aqi": "68", "idx": 742, "lon": "114.585", "utime": "Friday 19:00", "covered_area": 0.9678291372430692}, {"city": "Guyuan County welfare , Zhangjiakou (\u5f20\u5bb6\u53e3\u5e02\u6cbd\u6e90\u53bf\u798f\u5229\u9662)", "pol": "pm25", "stamp": 1421406000, "aqi": "99", "lat": "41.668", "idx": 744, "x": 5658, "img": "_ATYAyf9DTjpIZWJlaS_lvKDlrrblj6PluIIvW-iwg-ivleS4rV3msr3mupDljr_npo_liKnpmaIoKik", "lon": "115.681", "utime": "Friday 19:00", "covered_area": 1.480236908193147}, {"city": "Shangyi County Environmental Protection Bureau , Zhangjiakou (\u5f20\u5bb6\u53e3\u5e02\u5c1a\u4e49\u53bf\u73af\u5883\u4fdd\u62a4\u5c40)", "pol": "pm25", "stamp": 1421402400, "aqi": "76", "lat": "41.085", "idx": 1176, "x": 5659, "img": "_ATwAw_9DTjpIZWJlaS_lvKDlrrblj6PluIIvW-iwg-ivleS4rV3lsJrkuYnljr_njq_looPkv53miqTlsYAoKik", "lon": "113.978", "utime": "Friday 18:00", "covered_area": 2.701040308860967}, {"city": "Yuxian Secondary School , Zhangjiakou (\u5f20\u5bb6\u53e3\u5e02\u851a\u53bf\u7b2c\u4e8c\u4e2d\u5b66)", "pol": "pm25", "stamp": 1421406000, "aqi": "76", "lat": "39.846", "idx": 765, "x": 5660, "img": "_ATYAyf9DTjpIZWJlaS_lvKDlrrblj6PluIIvW-iwg-ivleS4rV3olJrljr_nrKzkuozkuK3lraYoKik", "lon": "114.596", "utime": "Friday 19:00", "covered_area": 3.3209131175637507}, {"city": "Yang County Vocational Education Center , Zhangjiakou (\u5f20\u5bb6\u53e3\u5e02\u9633\u539f\u53bf\u804c\u6559\u4e2d\u5fc3)", "pol": "pm25", "stamp": 1421406000, "aqi": "80", "lat": "40.105", "idx": 745, "x": 5661, "img": "_ATkAxv9DTjpIZWJlaS_lvKDlrrblj6PluIIvW-iwg-ivleS4rV3pmLPljp_ljr_ogYzmlZnkuK3lv4MoKik", "lon": "114.128", "utime": "Friday 19:00", "covered_area": 3.124057649608285}, {"city": "ch\u00f3ng l\u01d0 m\u00e8ng t\u00e8 f\u0101ng d\u0101n ji\u01d4di\u00e0n, Zhangjiakou (\u5f20\u5bb6\u53e3\u5e02\u5d07\u793c\u68a6\u7279\u82b3\u4e39\u9152\u5e97)", "pol": "pm25", "stamp": 1421402400, "aqi": "82", "lat": "40.98", "idx": 1180, "x": 5664, "img": "_ATwAw_9DTjpIZWJlaS_lvKDlrrblj6PluIIvW-iwg-ivleS4rV3ltIfnpLzmoqbnibnoirPkuLnphZLlupcoKik", "lon": "115.289", "utime": "Friday 18:00", "covered_area": 5.030282664888432}, {"city": "p\u00edngqu\u00e1n xi\u00e0n t\u00e8 ji\u00e0o zh\u014dngx\u012bn, Chengde (\u627f\u5fb7\u5e02\u5e73\u6cc9\u53bf\u7279\u6559\u4e2d\u5fc3)", "pol": "pm25", "stamp": 1421402400, "aqi": "134", "lat": "41.017", "idx": 1177, "x": 5666, "img": "_ATYAyf9DTjpIZWJlaS_mib_lvrfluIIvW-iwg-ivleS4rV3lubPms4nljr_nibnmlZnkuK3lv4MoKik", "lon": "118.699", "utime": "Friday 18:00", "covered_area": 2.5286201008042983}, {"city": "Longhua EPA , Chengde (\u627f\u5fb7\u5e02\u9686\u5316\u53bf\u73af\u4fdd\u5c40)", "pol": "pm25", "stamp": 1421402400, "aqi": "127", "lat": "41.31", "idx": 983, "x": 5667, "img": "_ATMAzP9DTjpIZWJlaS_mib_lvrfluIIvW-iwg-ivleS4rV3pmobljJbljr_njq_kv53lsYAoKik", "lon": "117.733", "utime": "Friday 18:00", "covered_area": 3.1084820186277993}, {"city": "ku\u0101n ch\u00e9ng xi\u00e0n zh\u00e8ngf\u01d4, Chengde (\u627f\u5fb7\u5e02\u5bbd\u57ce\u53bf\u653f\u5e9c)", "pol": "pm25", "stamp": 1421402400, "aqi": "82", "lat": "40.612", "idx": 1203, "x": 5668, "img": "_ATAAz_9DTjpIZWJlaS_mib_lvrfluIIvW-iwg-ivleS4rV3lrr3ln47ljr_mlL_lupwoKik", "lon": "118.48", "utime": "Friday 18:00", "covered_area": 5.03018839690054}, {"city": "w\u00e9ich\u01ceng xi\u00e0n zh\u00e8ngf\u01d4, Chengde (\u627f\u5fb7\u5e02\u56f4\u573a\u53bf\u653f\u5e9c)", "pol": "pm25", "stamp": 1421406000, "aqi": "85", "lat": "41.956", "idx": 746, "x": 5669, "img": "_ATAAz_9DTjpIZWJlaS_mib_lvrfluIIvW-iwg-ivleS4rV3lm7TlnLrljr_mlL_lupwoKik", "lon": "117.771", "utime": "Friday 19:00", "covered_area": 1.4460885056211898}, {"city": "h\u01cei x\u00ecng xi\u00e0n w\u01d4zhu\u0101ng b\u00f9, Cangzhou (\u6ca7\u5dde\u5e02\u6d77\u5174\u53bf\u6b66\u88c5\u90e8)", "pol": "pm25", "stamp": 1421402400, "aqi": "142", "lat": "38.143", "idx": 1205, "x": 5671, "img": "_ATMAzP9DTjpIZWJlaS_msqflt57luIIvW-iwg-ivleS4rV3mtbflhbTljr_mraboo4Xpg6goKik", "lon": "117.493", "utime": "Friday 18:00", "covered_area": 3.9305503990135513}, {"city": "m\u00e8ng c\u016bn xi\u00e0n q\u00ecxi\u00e0ng j\u00fa, Cangzhou (\u6ca7\u5dde\u5e02\u5b5f\u6751\u53bf\u6c14\u8c61\u5c40)", "pol": "pm25", "stamp": 1421402400, "aqi": "181", "lat": "38.056", "idx": 1178, "x": 5677, "img": "_ATMAzP9DTjpIZWJlaS_msqflt57luIIvW-iwg-ivleS4rV3lrZ_mnZHljr_msJTosaHlsYAoKik", "lon": "117.125", "utime": "Friday 18:00", "covered_area": 4.485634830310242}, {"city": "f\u00f9 ch\u00e9ng xi\u00e0n f\u01ceyu\u00e0n, Hengshui (\u8861\u6c34\u5e02\u961c\u57ce\u53bf\u6cd5\u9662)", "pol": "pm25", "stamp": 1421402400, "aqi": "169", "lat": "37.866", "idx": 1184, "x": 5687, "img": "_ATAAz_9DTjpIZWJlaS_ooaHmsLTluIIvW-iwg-ivleS4rV3pmJzln47ljr_ms5XpmaIoKik", "lon": "116.174", "utime": "Friday 18:00", "covered_area": 5.641790296536733}, {"pol": "pm25", "img": "_ATAAz_9DTjpIZWJlaS_lu4rlnYrluIIvW-iwg-ivleS4rV3lpKfln47njq_kv53lsYAoKik", "lat": "38.712", "x": 5680, "sutime": "2015-01-16 19:00:00", "city": "Dacheng EPA, Langfang (\u5eca\u574a\u5e02\u5927\u57ce\u73af\u4fdd\u5c40)", "stamp": 1421406000, "aqi": "183", "idx": 745, "lon": "116.66", "utime": "Friday 19:00", "covered_area": 6.596047942634299}, {"city": "Gucheng County , Hengshui (\u8861\u6c34\u5e02\u6545\u57ce\u53bf\u53bf\u653f\u5e9c)", "pol": "pm25", "stamp": 1421402400, "aqi": "179", "lat": "37.347", "idx": 1180, "x": 5685, "img": "_ATMAzP9DTjpIZWJlaS_ooaHmsLTluIIvW-iwg-ivleS4rV3mlYXln47ljr_ljr_mlL_lupwoKik", "lon": "115.961", "utime": "Friday 18:00", "covered_area": 4.780139901439586}, {"city": "Haitai fazhan No.2 road, Tianjin (\u5929\u6d25\u6d77\u6cf0\u53d1\u5c55\u4e8c\u8def)", "pol": "pm25", "stamp": 1421406000, "aqi": "72", "lat": "39.07846667", "idx": 1160, "x": 716, "img": "_AR0A4v9DTjp0aWFuamluL-a1t-azsOWPkeWxleS6jOi3rw", "lon": "117.0901667", "utime": "Friday 19:00", "covered_area": 6.388753479867888}, {"city": "No.4 street, Tianjin (\u5929\u6d25\u7b2c\u56db\u5927\u8857)", "pol": "pm25", "stamp": 1421406000, "aqi": "72", "lat": "39.03431667", "idx": 1148, "x": 704, "img": "_c_azKslMzMvKzNN_vmbN09mzny5Z_mLhdAA", "lon": "117.70715", "utime": "Friday 19:00", "covered_area": 4.931501761224961}, {"city": "Hexi Yijing road, Tianjin (\u5929\u6d25\u6cb3\u897f\u4e00\u7ecf\u8def)", "pol": "pm25", "stamp": 1421406000, "aqi": "82", "lat": "39.24735", "idx": 1153, "x": 709, "img": "_c_azKslMzMvKzNN_tmnzi6X7n-xoeL67_8X29QA", "lon": "117.7917667", "utime": "Friday 19:00", "covered_area": 5.239691116019676}, {"city": "Baobai highway, Tianjin (\u5929\u6d25\u5b9d\u767d\u516c\u8def)", "pol": "pm25", "stamp": 1421406000, "aqi": "91", "lat": "39.51626667", "idx": 1157, "x": 720, "img": "_c_azKslMzMvKzNN_um7u85l7n7auebF9PQA", "lon": "117.3431167", "utime": "Friday 19:00", "covered_area": 6.611224119568572}, {"city": "B\u012bnji\u0101ng, Hangzhou (\u676d\u5dde\u5e02\u6ee8\u6c5f)", "pol": "pm25", "stamp": 1421402400, "aqi": "170", "lat": "30.210000", "idx": 1188, "x": 723, "img": "_c_azispIzcpMzEvXfzZ37dPt857uaNJ_tnvFs43zAQ", "lon": "120.210833", "utime": "Friday 18:00", "covered_area": 6.33135268804079}, {"city": "Zh\u0101ohu\u012b zone 5, Hangzhou (\u676d\u5dde\u5e02\u671d\u6656\u4e94\u533a)", "pol": "pm25", "stamp": 1421402400, "aqi": "187", "lat": "30.288", "idx": 994, "x": 722, "img": "_ASIA3f9DTjpaaGVqaWFuZy_mna3lt57luIIv5pyd5pmW5LqU5Yy6", "lon": "120.171", "utime": "Friday 18:00", "covered_area": 6.288292962970126}, {"city": "Xiasha, Hangzhou (\u676d\u5dde\u5e02\u4e0b\u6c99)", "pol": "pm25", "stamp": 1421402400, "aqi": "180", "lat": "30.30583333", "idx": 977, "x": 726, "img": "_c_azispIzcpMzEvXfzZ37dPt857uaNJ_sqP72aaZAA", "lon": "120.3480556", "utime": "Friday 18:00", "covered_area": 6.414547815141719}, {"city": "Chengxiang town, Hangzhou (\u676d\u5dde\u5e02\u57ce\u53a2\u9547)", "pol": "pm25", "stamp": 1421398800, "aqi": "271", "lat": "30.18194444", "idx": 1274, "x": 729, "img": "_c_azispIzcpMzEvXfzZ37dPt857uaNJ_Or_vad-il1PbAQ", "lon": "120.2697222", "utime": "Friday 17:00", "covered_area": 6.355878014410126}, {"city": "Qiandao lake, Hangzhou (\u676d\u5dde\u5e02\u5343\u5c9b\u6e56)", "pol": "pm25", "stamp": 1421402400, "aqi": "154", "lat": "29.640581", "idx": 1213, "x": 730, "img": "_AR8A4P9DTjpaaGVqaWFuZy_mna3lt57luIIv5Y2D5bKb5rmW", "lon": "119.025965", "utime": "Friday 18:00", "covered_area": 3.458868864472767}, {"city": "City Station, Wenzhou (\u6e29\u5dde\u5e02\u5e02\u7ad9)", "pol": "pm25", "stamp": 1421402400, "aqi": "162", "lat": "28.013044", "idx": 983, "x": 736, "img": "_c_azispIzcpMzEvXf7Zj5dPt857uaNIH4uerZwIA", "lon": "120.675116", "utime": "Friday 18:00", "covered_area": 4.462955270603192}, {"city": "Longwan, Wenzhou (\u6e29\u5dde\u5e02\u9f99\u6e7e)", "pol": "pm25", "stamp": 1421402400, "aqi": "157", "lat": "27.971359", "idx": 985, "x": 738, "img": "_c_azispIzcpMzEvXf7Zj5dPt857uaNJ_uW_ms537AA", "lon": "120.764294", "utime": "Friday 18:00", "covered_area": 4.149779702531786}, {"city": "Shangfang hill , Suzhou (\u82cf\u5dde\u4e0a\u65b9\u5c71)", "pol": "pm25", "stamp": 1421402400, "aqi": "190", "lat": "31.2472", "idx": 1307, "x": 834, "img": "_c_az8spMzEsvLtV_0d3_dPs8_Sc7up5N2_l040YA", "lon": "120.561", "utime": "Friday 18:00", "covered_area": 4.975086729819928}, {"city": "Jishan new village, Huzhou (\u6e56\u5dde\u5e02\u5409\u5c71\u65b0\u6751)", "pol": "pm25", "stamp": 1421402400, "aqi": "183", "lat": "30.862005", "idx": 995, "x": 744, "img": "_ASIA3f9DTjpaaGVqaWFuZy_muZblt57luIIv5ZCJ5bGx5paw5p2R", "lon": "120.115328", "utime": "Friday 18:00", "covered_area": 5.272818470738923}, {"city": "Library, Shaoxing (\u7ecd\u5174\u5e02\u8bf8\u66a8\u5e02\u56fe\u4e66\u9986)", "pol": "pm25", "stamp": 1421402400, "aqi": "167", "lat": "29.708752", "idx": 986, "x": 752, "img": "_c_azispIzcpMzEvXf76792nrlqc7ml6s3_Fs1gogQ__p7H1Pdi57uawNAA", "lon": "120.248752", "utime": "Friday 18:00", "covered_area": 5.70951421160108}, {"city": "No.15 middle school, Jinhua (\u91d1\u534e\u5e02\u5341\u4e94\u4e2d)", "pol": "pm25", "stamp": 1421402400, "aqi": "162", "lat": "29.077", "idx": 988, "x": 755, "img": "_c_azispIzcpMzEvXf9k-8Wlv39MdTfpPexuf7JryZMdaAA", "lon": "119.6474167", "utime": "Friday 18:00", "covered_area": 4.899612309742364}, {"city": "Quzhou University, Quzhou (\u8862\u5dde\u5e02\u8862\u5dde\u5b66\u9662)", "pol": "pm25", "stamp": 1421402400, "aqi": "124", "lat": "28.97452778", "idx": 1008, "x": 761, "img": "_c_azispIzcpMzEvXf7Fw0dPt857uaIKx1i57OXMRAA", "lon": "118.85525", "utime": "Friday 18:00", "covered_area": 4.6529653777931355}, {"city": "L\u00ednch\u00e9ng new area, Zhoushan (\u821f\u5c71\u5e02\u4e34\u57ce\u65b0\u533a)", "pol": "pm25", "stamp": 1421402400, "aqi": "162", "lat": "29.99444444", "idx": 991, "x": 762, "img": "_ASIA3f9DTjpaaGVqaWFuZy_oiJ_lsbHluIIv5Li05Z-O5paw5Yy6", "lon": "122.1897222", "utime": "Friday 18:00", "covered_area": 3.8629963215444594}, {"city": "Putuo east port, Zhoushan (\u821f\u5c71\u5e02\u666e\u9640\u4e1c\u6e2f)", "pol": "pm25", "stamp": 1421402400, "aqi": "160", "lat": "29.95378", "idx": 992, "x": 763, "img": "_ASIA3f9DTjpaaGVqaWFuZy_oiJ_lsbHluIIv5pmu6ZmA5Lic5riv", "lon": "122.3135", "utime": "Friday 18:00", "covered_area": 3.6154010109875276}, {"city": "Huangyan EPA building, Taizhou (\u53f0\u5dde\u5e02\u9ec4\u5ca9\u73af\u4fdd\u5927\u697c)", "pol": "pm25", "stamp": 1421402400, "aqi": "152", "lat": "28.659261", "idx": 997, "x": 767, "img": "_ASgA1_9DTjpaaGVqaWFuZy_lj7Dlt57luIIv6buE5bKp546v5L-d5aSn5qW8", "lon": "121.280823", "utime": "Friday 18:00", "covered_area": 4.398458003151915}, {"city": "Yu Zhuang Qian, Lishui (\u4e3d\u6c34\u5e02\u4f59\u5e84\u524d)", "pol": "pm25", "stamp": 1421402400, "aqi": "155", "lat": "28.42305556", "idx": 1194, "x": 768, "img": "_c_azispIzcpMzEvXf7Jj77MNW57uaNJ_snfm010tTzt7AQ", "lon": "119.8794444", "utime": "Friday 18:00", "covered_area": 5.206029578761747}, {"city": "No. 4 middle school, Hangzhou (\u676d\u5dde\u5e02\u4e34\u5b89\u5e02\u7b2c\u56db\u4e2d\u5b66)", "pol": "pm25", "stamp": 1421402400, "aqi": "174", "lat": "30.23194444", "idx": 1013, "x": 3789, "img": "_ASsA1P9DTjpaaGVqaWFuZy_mna3lt57luILkuLTlronluIIv56ys5Zub5Lit5a2m", "lon": "119.6947222", "utime": "Friday 18:00", "covered_area": 4.9029689780776415}, {"pol": "pm25", "img": "_ASIA3f9DTjpaaGVqaWFuZy_mna3lt57luIIv56ys5LqM5Lit5a2m", "lat": "29.4612722", "x": 4755, "sutime": "2015-01-16 08:00:00", "city": "\u7b2c\u4e8c\u4e2d\u5b66, Ji\u00e0nd\u00e9, Hangzhou (\u676d\u5dde\u5e02\u5efa\u5fb7\u5e02\u7b2c\u4e8c\u4e2d\u5b66)", "stamp": 1421366400, "aqi": "-", "idx": 767, "lon": "119.2876833", "utime": "Friday 8:00", "covered_area": 4.209405196206116}, {"pol": "pm25", "img": "_ASUA2v9DTjpaaGVqaWFuZy_muKnlt57luIIv5bmz6Ziz55uR5rWL56uZ", "lat": "27.6596583", "x": 4760, "sutime": "2015-01-16 08:00:00", "city": "\u5e73\u9633\u76d1\u6d4b\u7ad9, P\u00edngy\u00e1ng, Wenzhou (\u6e29\u5dde\u5e02\u5e73\u9633\u53bf\u5e73\u9633\u76d1\u6d4b\u7ad9)", "stamp": 1421366400, "aqi": "-", "idx": 772, "lon": "120.5701222", "utime": "Friday 8:00", "covered_area": 3.1891477172964304}, {"pol": "pm25", "img": "_c_azispIzcpMzEvXf7Zj5dPt857uaNJ_umT5083NAA", "lat": "27.781647", "x": 4764, "sutime": "2015-01-16 08:00:00", "city": "\u5927\u5cc3, W\u00e9nch\u00e9ng, Wenzhou (\u6e29\u5dde\u5e02\u6587\u6210\u53bf\u5927\u5cc3)", "stamp": 1421366400, "aqi": "-", "idx": 776, "lon": "120.0930", "utime": "Friday 8:00", "covered_area": 4.046964339495181}, {"pol": "pm25", "img": "_c_azispIzcpMzEvXf7Zj5dPt857uaNJ_vnf6yxmbAQ", "lat": "27.55666667", "x": 4765, "sutime": "2015-01-16 08:00:00", "city": "\u7f57\u9633, T\u00e0ish\u00f9n, Wenzhou (\u6e29\u5dde\u5e02\u6cf0\u987a\u53bf\u7f57\u9633)", "stamp": 1421366400, "aqi": "-", "idx": 777, "lon": "119.7219444", "utime": "Friday 8:00", "covered_area": 3.4453051326426403}, {"pol": "pm25", "img": "_ASgA1_9DTjpaaGVqaWFuZy_lmInlhbTluIIv5rW355uQ546v5L-d5aSn5qW8", "lat": "30.524067", "x": 4772, "sutime": "2014-05-13 08:00:00", "city": "\u6d77\u76d0\u73af\u4fdd\u5927\u697c, H\u01ceiy\u00e1n, Jiaxing (\u5609\u5174\u5e02\u6d77\u76d0\u53bf\u6d77\u76d0\u73af\u4fdd\u5927\u697c)", "stamp": 1399939200, "aqi": "-", "idx": 784, "lon": "120.945469", "utime": "Tuesday 8:00", "covered_area": 5.223082722270575}, {"pol": "pm25", "img": "_ASIA3f9DTjpaaGVqaWFuZy_muZblt57luIIv5a6J5ZCJ5Z-O5Lic", "lat": "30.59805556", "x": 4785, "sutime": "2015-01-16 08:00:00", "city": "\u5b89\u5409\u57ce\u4e1c, \u0100nj\u00ed, Huzhou (\u6e56\u5dde\u5e02\u5b89\u5409\u53bf\u5b89\u5409\u57ce\u4e1c)", "stamp": 1421366400, "aqi": "-", "idx": 797, "lon": "119.6952778", "utime": "Friday 8:00", "covered_area": 4.5120159676325}, {"pol": "pm25", "img": "_c_azispIzcpMzEvXf76792nrlqc7mvSfzu97smPO89UzAQ", "lat": "29.49055", "x": 4789, "sutime": "2015-01-16 08:00:00", "city": "\u57ce\u4e1c\u7ad9, X\u012bnch\u0101ng, Shaoxing (\u7ecd\u5174\u5e02\u65b0\u660c\u53bf\u57ce\u4e1c\u7ad9)", "stamp": 1421366400, "aqi": "-", "idx": 801, "lon": "120.91483", "utime": "Friday 8:00", "covered_area": 5.686339207283143}, {"pol": "pm25", "img": "_c_azispIzcpMzEvXf76792nrlqc7mvSf7Oh6MXMekPW8b_2T_XOfbmwAAA", "lat": "30.02184", "x": 4791, "sutime": "2015-01-16 08:00:00", "city": "\u4e0a\u865e\u5e02\u73af\u4fdd\u5c40, Sh\u00e0ngy\u00faq\u016b, Shaoxing (\u7ecd\u5174\u5e02\u4e0a\u865e\u533a\u4e0a\u865e\u5e02\u73af\u4fdd\u5c40)", "stamp": 1421366400, "aqi": "-", "idx": 803, "lon": "120.87318", "utime": "Friday 8:00", "covered_area": 5.488055469983961}, {"pol": "pm25", "img": "_ASUA2v9DTjpaaGVqaWFuZy_ph5HljY7luIIv5Y6_5pS_5bqc5aSn5qW8", "lat": "28.88916667", "x": 4795, "sutime": "2015-01-16 08:00:00", "city": "\u53bf\u653f\u5e9c\u5927\u697c, W\u01d4y\u00ec, Jinhua (\u91d1\u534e\u5e02\u6b66\u4e49\u53bf\u53bf\u653f\u5e9c\u5927\u697c)", "stamp": 1421366400, "aqi": "-", "idx": 807, "lon": "119.8122222", "utime": "Friday 8:00", "covered_area": 4.75160683918722}, {"pol": "pm25", "img": "_ASsA1P9DTjpaaGVqaWFuZy_ph5HljY7luIIv56OQ5a6J5Y6_546v5L-d5aSn5qW8", "lat": "29.0608333", "x": 4799, "sutime": "2015-01-16 08:00:00", "city": "\u78d0\u5b89\u53bf\u73af\u4fdd\u5927\u697c, P\u00e1n\u0101nXian, Jinhua (\u91d1\u534e\u5e02\u78d0\u5b89\u53bf\u78d0\u5b89\u53bf\u73af\u4fdd\u5927\u697c)", "stamp": 1421366400, "aqi": "-", "idx": 811, "lon": "120.4383333", "utime": "Friday 8:00", "covered_area": 4.704651261104789}, {"pol": "pm25", "img": "_ASUA2v9DTjpaaGVqaWFuZy_ooaLlt57luIIv5Zu-5Lmm6aaG5aSn5qW8", "lat": "28.898055555556", "x": 4806, "sutime": "2015-01-16 08:00:00", "city": "\u56fe\u4e66\u9986\u5927\u697c, Ch\u00e1ngsh\u0101n, Quzhou (\u8862\u5dde\u5e02\u5e38\u5c71\u53bf\u56fe\u4e66\u9986\u5927\u697c)", "stamp": 1421366400, "aqi": "-", "idx": 818, "lon": "118.51111111111", "utime": "Friday 8:00", "covered_area": 3.4390413744307207}, {"pol": "pm25", "img": "_AR8A4P9DTjpaaGVqaWFuZy_ooaLlt57luIIv6ZKx5rGf5rqQ", "lat": "29.4294444", "x": 4809, "sutime": "2015-01-16 08:00:00", "city": "\u94b1\u6c5f\u6e90, K\u0101ihu\u00e0, Quzhou (\u8862\u5dde\u5e02\u5f00\u5316\u53bf\u94b1\u6c5f\u6e90)", "stamp": 1421366400, "aqi": "-", "idx": 821, "lon": "118.3125", "utime": "Friday 8:00", "covered_area": 2.4328173942458813}, {"pol": "pm25", "img": "_ASgA1_9DTjpaaGVqaWFuZy_ooaLlt57luIIv5rGf5bGx546v5L-d5aSn5qW8", "lat": "28.74343", "x": 4812, "sutime": "2015-01-16 08:00:00", "city": "\u6c5f\u5c71\u73af\u4fdd\u5927\u697c, Ji\u0101ngsh\u0101n, Quzhou (\u8862\u5dde\u5e02\u6c5f\u5c71\u5e02\u6c5f\u5c71\u73af\u4fdd\u5927\u697c)", "stamp": 1421366400, "aqi": "-", "idx": 824, "lon": "118.63500", "utime": "Friday 8:00", "covered_area": 3.8236472068611747}, {"pol": "pm25", "img": "_c_azispIzcpMzEvXf9Ex_-nGjU93NOk_3bQRyHret_7J_rlPlyx_tnQPAA", "lat": "30.2669444", "x": 4815, "sutime": "2015-01-16 08:00:00", "city": "\u5cb1\u5c71\u73af\u4fdd\u5927\u697c, D\u00e0ish\u0101n, Zhoushan (\u821f\u5c71\u5e02\u5cb1\u5c71\u53bf\u5cb1\u5c71\u73af\u4fdd\u5927\u697c)", "stamp": 1421366400, "aqi": "-", "idx": 827, "lon": "122.2202778", "utime": "Friday 8:00", "covered_area": 3.2034973324292704}, {"pol": "pm25", "img": "_ASIA3f9DTjpaaGVqaWFuZy_oiJ_lsbHluIIv5bWK5rOX6I-c5Zut", "lat": "30.7266667", "x": 4816, "sutime": "2015-01-16 08:00:00", "city": "\u5d4a\u6cd7\u83dc\u56ed, Sh\u00e8ngs\u00ec, Zhoushan (\u821f\u5c71\u5e02\u5d4a\u6cd7\u53bf\u5d4a\u6cd7\u83dc\u56ed)", "stamp": 1421366400, "aqi": "-", "idx": 828, "lon": "122.4458333", "utime": "Friday 8:00", "covered_area": 1.6951541832009447}, {"pol": "pm25", "img": "_ASgA1_9DTjpaaGVqaWFuZy_lj7Dlt57luIIv5qWa6Zeo5Lit5b-D5bCP5a2m", "lat": "28.219019792815", "x": 4818, "sutime": "2015-01-16 08:00:00", "city": "\u695a\u95e8\u4e2d\u5fc3\u5c0f\u5b66, Y\u00f9hu\u00e1n, Taizhou (\u53f0\u5dde\u5e02\u7389\u73af\u53bf\u695a\u95e8\u4e2d\u5fc3\u5c0f\u5b66)", "stamp": 1421366400, "aqi": "-", "idx": 830, "lon": "121.289126873016", "utime": "Friday 8:00", "covered_area": 3.0676496877880552}, {"pol": "pm25", "img": "_ASUA2v9DTjpaaGVqaWFuZy_lj7Dlt57luIIv5LiJ6Zeo546v55uR56uZ", "lat": "29.116775", "x": 4820, "sutime": "2015-01-16 08:00:00", "city": "\u4e09\u95e8\u73af\u76d1\u7ad9, S\u0101nm\u00e9n, Taizhou (\u53f0\u5dde\u5e02\u4e09\u95e8\u53bf\u4e09\u95e8\u73af\u76d1\u7ad9)", "stamp": 1421366400, "aqi": "-", "idx": 832, "lon": "121.375923", "utime": "Friday 8:00", "covered_area": 4.947296238933988}, {"pol": "pm25", "img": "_ASIA3f9DTjpaaGVqaWFuZy_lj7Dlt57luIIv5paw55Sf5Lit5a2m", "lat": "28.737334", "x": 4823, "sutime": "2015-01-16 08:00:00", "city": "\u65b0\u751f\u4e2d\u5b66, Xianj\u016b, Taizhou (\u53f0\u5dde\u5e02\u4ed9\u5c45\u53bf\u65b0\u751f\u4e2d\u5b66)", "stamp": 1421366400, "aqi": "-", "idx": 835, "lon": "120.477356", "utime": "Friday 8:00", "covered_area": 5.313384933076171}, {"pol": "pm25", "img": "_ASgA1_9DTjpaaGVqaWFuZy_lj7Dlt57luIIv5be-5bGx5a6e6aqM5bCP5a2m", "lat": "28.840238", "x": 4827, "sutime": "2015-01-16 08:00:00", "city": "\u5dfe\u5c71\u5b9e\u9a8c\u5c0f\u5b66, L\u00ednh\u01cei, Taizhou (\u53f0\u5dde\u5e02\u4e34\u6d77\u5e02\u5dfe\u5c71\u5b9e\u9a8c\u5c0f\u5b66)", "stamp": 1421366400, "aqi": "-", "idx": 839, "lon": "121.140945", "utime": "Friday 8:00", "covered_area": 4.861193793894886}, {"pol": "pm25", "img": "_ASUA2v9DTjpaaGVqaWFuZy_kuL3msLTluIIv6YGC5piM55uR5rWL5qW8", "lat": "28.593203", "x": 4833, "sutime": "2015-01-16 08:00:00", "city": "\u9042\u660c\u76d1\u6d4b\u697c, Su\u00ecch\u0101ng, Lishui (\u4e3d\u6c34\u5e02\u9042\u660c\u53bf\u9042\u660c\u76d1\u6d4b\u697c)", "stamp": 1421366400, "aqi": "-", "idx": 845, "lon": "119.272551", "utime": "Friday 8:00", "covered_area": 5.085791120024646}, {"pol": "pm25", "img": "_ASsA1P9DTjpaaGVqaWFuZy_kuL3msLTluIIv5LqR5ZKM5Y6_546v5L-d5qW86aG2", "lat": "28.1172222", "x": 4836, "sutime": "2015-01-16 08:00:00", "city": "\u4e91\u548c\u53bf\u73af\u4fdd\u697c\u9876, Y\u00fanh\u00e9, Lishui (\u4e3d\u6c34\u5e02\u4e91\u548c\u53bf\u4e91\u548c\u53bf\u73af\u4fdd\u697c\u9876)", "stamp": 1421366400, "aqi": "-", "idx": 848, "lon": "119.5633333", "utime": "Friday 8:00", "covered_area": 4.858778608583399}, {"pol": "pm25", "img": "_ASUA2v9DTjpaaGVqaWFuZy_kuL3msLTluIIv5bqG5YWD55uR5rWL5qW8", "lat": "27.626343", "x": 4837, "sutime": "2015-01-16 08:00:00", "city": "\u5e86\u5143\u76d1\u6d4b\u697c, Q\u00ecngyu\u00e1n, Lishui (\u4e3d\u6c34\u5e02\u5e86\u5143\u53bf\u5e86\u5143\u76d1\u6d4b\u697c)", "stamp": 1421366400, "aqi": "-", "idx": 849, "lon": "119.059472", "utime": "Friday 8:00", "covered_area": 2.24617611705758}, {"pol": "pm25", "img": "_ASIA3f9DTjpaaGVqaWFuZy_kuL3msLTluIIv56e75Yqe5aSn5qW8", "lat": "28.080022", "x": 4839, "sutime": "0000-00-00 00:00:00", "city": "\u79fb\u529e\u5927\u697c, L\u00f3ngqu\u00e1n, Lishui (\u4e3d\u6c34\u5e02\u9f99\u6cc9\u5e02\u79fb\u529e\u5927\u697c)", "stamp": -62170012800, "aqi": "-", "idx": 851, "lon": "119.132800", "utime": "Wednesday 0:00", "covered_area": 3.9408827272764624}, {"city": "G\u0101om\u00edng k\u01d2ngt\u00e1ng, Foshan (\u4f5b\u5c71\u9ad8\u660e\u5b54\u5802)", "pol": "pm25", "stamp": 1421402400, "aqi": "122", "lat": "22.8822", "idx": 1092, "x": 793, "img": "_ASAA3_9DTjpHdWFuZ2Rvbmcv5L2b5bGxL-mrmOaYjuWtlOWggg", "lon": "112.8366", "utime": "Friday 18:00", "covered_area": 4.725433696887672}, {"city": "Town governement, Qingyuan (\u6e05\u8fdc\u57ce\u533a\u653f\u5e9c)", "pol": "pm25", "stamp": 1421402400, "aqi": "134", "lat": "23.710556", "idx": 1136, "x": 4279, "img": "_ASAA3_9DTjpHdWFuZ2Rvbmcv5riF6L-cL-WfjuWMuuaUv-W6nA", "lon": "113.020833", "utime": "Friday 18:00", "covered_area": 2.457275659421553}, {"city": "Tianhu, Guangzhou (\u5e7f\u5dde\u5929\u6e56)", "pol": "pm25", "stamp": 1421402400, "aqi": "109", "lat": "23.6502", "idx": 1291, "x": 781, "img": "_c_azci9NzEtPyc9L13-6c__T7fP0ny5Z-WznNAA", "lon": "113.6246", "utime": "Friday 18:00", "covered_area": 3.2879241344005408}, {"city": "D\u00f2um\u00e9n, Zhuhai (\u73e0\u6d77\u6597\u95e8)", "pol": "pm25", "stamp": 1421402400, "aqi": "157", "lat": "22.228111", "idx": 1294, "x": 784, "img": "_c_azci9NzEtPyc9L13_ev-DZ1u36z6ZNfzl9BQA", "lon": "113.298833", "utime": "Friday 18:00", "covered_area": 4.054175870482457}, {"city": "J\u00edd\u00e0, Zhuhai (\u73e0\u6d77\u5409\u5927)", "pol": "pm25", "stamp": 1421402400, "aqi": "160", "lat": "22.2611", "idx": 1093, "x": 785, "img": "_c_azci9NzEtPyc9L13_ev-DZ1u36Tyd0Pl2yHAA", "lon": "113.5736", "utime": "Friday 18:00", "covered_area": 4.157308729021318}, {"city": "B\u011biji\u0113, Jiangmen (\u6c5f\u95e8\u5317\u8857)", "pol": "pm25", "stamp": 1421402400, "aqi": "153", "lat": "22.6069", "idx": 1118, "x": 803, "img": "_c_azci9NzEtPyc9L13-2cf7L6Sv0n_ZMf7FwOgA", "lon": "113.1036", "utime": "Friday 18:00", "covered_area": 4.842859524134001}, {"city": "Du\u0101nf\u0113n, Jiangmen (\u6c5f\u95e8\u7aef\u82ac)", "pol": "pm25", "stamp": 1421402400, "aqi": "44", "lat": "22.0608", "idx": 1099, "x": 800, "img": "_c_azci9NzEtPyc9L13-2cf7L6Sv0n69e_6JrDQA", "lon": "112.7607", "utime": "Friday 18:00", "covered_area": 3.018661609373341}, {"city": "Shu\u0101ngqi\u00e1o, Jiangmen (\u6c5f\u95e8\u53cc\u6865)", "pol": "pm25", "stamp": 1421402400, "aqi": "-", "lat": "22.586277", "idx": 1117, "x": 801, "img": "_c_azci9NzEtPyc9L13-2cf7L6Sv0n_b3PFu4FAA", "lon": "112.581444", "utime": "Friday 18:00", "covered_area": 4.078015494164463}, {"city": "Kengkouzi station, Zhaoqing (\u8087\u5e86\u5751\u53e3\u5b50\u7ad9)", "pol": "pm25", "stamp": 1421402400, "aqi": "114", "lat": "23.1617", "idx": 1100, "x": 805, "img": "_c_azci9NzEtPyc9L13_R1P50V5v-07kTn_Yvfrp2wvPVMwE", "lon": "112.5653", "utime": "Friday 18:00", "covered_area": 3.1099072070833875}, {"city": "Huiyang chuanhu, Huizhou (\u60e0\u5dde\u60e0\u9633\u8239\u6e56)", "pol": "pm25", "stamp": 1421402400, "aqi": "87", "lat": "22.8172", "idx": 1122, "x": 814, "img": "_c_azci9NzEtPyc9L13_WvODp9nkg6uWMzS86dj7bOQ0A", "lon": "114.3244", "utime": "Friday 18:00", "covered_area": 3.769196867652565}, {"city": "Xijiao, Huizhou (\u60e0\u5dde\u897f\u89d2)", "pol": "pm25", "stamp": 1421402400, "aqi": "-", "lat": "23.3406", "idx": 1332, "x": 811, "img": "_c_azci9NzEtPyc9L13_WvODp9nn6L5buf7F8EgA", "lon": "114.1077", "utime": "Friday 18:00", "covered_area": 3.801384594378284}, {"city": "Tap Mun (\u5854\u95e8)", "pol": "pm25", "stamp": 1421406000, "aqi": "125", "lat": "22.471249", "idx": 1370, "x": 2566, "img": "_8_C2CkksUPAtzQMA", "lon": "114.360804", "utime": "Friday 19:00", "covered_area": 3.0200285459578833}, {"city": "Dongcheng Shijing, Dongguan (\u4e1c\u839e\u4e1c\u57ce\u77f3\u4e95)", "pol": "pm25", "stamp": 1421402400, "aqi": "164", "lat": "23.0128", "idx": 1104, "x": 818, "img": "_c_azci9NzEtPyc9L13-yY86Lvnkg6un8vufzNz_ZNRUA", "lon": "113.7944", "utime": "Friday 18:00", "covered_area": 4.5579285891066705}, {"city": "No.8 middle school, Shaoguan (\u97f6\u5173\u5e02\u516b\u4e2d)", "pol": "pm25", "stamp": 1421402400, "aqi": "95", "lat": "24.770833", "idx": 1126, "x": 4250, "img": "_c_azci9NzEtPyc9L1385f9vT1s36T3c0PW1d_WTHWgA", "lon": "113.578333", "utime": "Friday 18:00", "covered_area": 1.4741169016428852}, {"city": "Qujiang Monitoring Station, Shaoguan (\u97f6\u5173\u66f2\u6c5f\u76d1\u6d4b\u7ad9)", "pol": "pm25", "stamp": 1421402400, "aqi": "89", "lat": "24.686111", "idx": 1103, "x": 4254, "img": "_ASMA3P9DTjpHdWFuZ2Rvbmcv6Z-25YWzL-absuaxn-ebkea1i-ermQ", "lon": "113.596389", "utime": "Friday 18:00", "covered_area": 1.7066646455140386}, {"city": "Municipal Corporation, Chaozhou (\u6f6e\u5dde\u5e02\u653f\u516c\u53f8)", "pol": "pm25", "stamp": 1421402400, "aqi": "159", "lat": "23.6531", "idx": 1309, "x": 4284, "img": "_ASAA3_9DTjpHdWFuZ2Rvbmcv5r2u5beeL-W4guaUv-WFrOWPuA", "lon": "116.6175", "utime": "Friday 18:00", "covered_area": 1.1889771534620999}, {"city": "Ch\u00e9ngh\u01ceizi, Shantou (\u6c55\u5934\u6f84\u6d77\u5b50\u7ad9)", "pol": "pm25", "stamp": 1421402400, "aqi": "104", "lat": "23.471389", "idx": 1107, "x": 4258, "img": "_ASAA3_9DTjpHdWFuZ2Rvbmcv5rGV5aS0L-a-hOa1t-WtkOermQ", "lon": "116.751944", "utime": "Friday 18:00", "covered_area": 1.0124278098885995}, {"city": "EPB Dormitory, Zhanjiang (\u6e5b\u6c5f\u73af\u4fdd\u5c40\u5bbf\u820d)", "pol": "pm25", "stamp": 1421402400, "aqi": "97", "lat": "21.199722", "idx": 1104, "x": 4261, "img": "_ASMA3P9DTjpHdWFuZ2Rvbmcv5rmb5rGfL-eOr-S_neWxgOWuv-iIjQ", "lon": "110.401944", "utime": "Friday 18:00", "covered_area": 1.3998664212054344}, {"city": "Zhanjiang Theatre, Zhanjiang (\u6e5b\u6c5f\u6e5b\u6c5f\u5f71\u5267\u9662)", "pol": "pm25", "stamp": 1421402400, "aqi": "137", "lat": "21.270555", "idx": 1253, "x": 4263, "img": "_c_azci9NzEtPyc9L13-2c_azjfOh1NO9G592Ln85cxEA", "lon": "110.361944", "utime": "Friday 18:00", "covered_area": 1.3926779437976493}, {"city": "Maogang sub-office EPB, Maoming (\u8302\u540d\u5e02\u73af\u4fdd\u5c40\u8302\u6e2f\u5206\u5c40)", "pol": "pm25", "stamp": 1421402400, "aqi": "129", "lat": "21.4689", "idx": 1132, "x": 4264, "img": "_c_azci9NzEtPyc9L13_R0_R0Qq_-0x1Nz_vWP9k_9-nGBqDQsx3rn3a0AdkA", "lon": "111.0286", "utime": "Friday 18:00", "covered_area": 1.1575812134135348}, {"city": "Environmental Monitoring Center, Meizhou (\u6885\u5dde\u73af\u5883\u76d1\u63a7\u4e2d\u5fc3)", "pol": "pm25", "stamp": 1421402400, "aqi": "114", "lat": "24.2654", "idx": 1305, "x": 4269, "img": "_ASYA2f9DTjpHdWFuZ2Rvbmcv5qKF5beeL-eOr-Wig-ebkeaOp-S4reW_gw", "lon": "116.1248", "utime": "Friday 18:00", "covered_area": 0.6305614154913393}, {"pol": "pm25", "img": "_ASAA3_9DTjpHdWFuZ2Rvbmcv5rGV5bC-L-aWsOWfjuS4reWtpg", "lat": "22.7925", "x": 4272, "sutime": "2015-01-16 19:00:00", "city": "Xincheng Middle School, Shanwei (\u6c55\u5c3e\u65b0\u57ce\u4e2d\u5b66)", "stamp": 1421406000, "aqi": "122", "idx": 864, "lon": "115.3622", "utime": "Friday 19:00", "covered_area": 0.6680829131003598}, {"city": "City water company, Heyuan (\u6cb3\u6e90\u5e02\u81ea\u6765\u6c34\u5382)", "pol": "pm25", "stamp": 1421402400, "aqi": "109", "lat": "23.75694", "idx": 1135, "x": 4274, "img": "_ASMA3P9DTjpHdWFuZ2Rvbmcv5rKz5rqQL-W4guiHquadpeawtOWOgg", "lon": "114.6778", "utime": "Friday 18:00", "covered_area": 2.6695445117273486}, {"city": "Heyuan high school, Heyuan (\u6cb3\u6e90\u6cb3\u6e90\u4e2d\u5b66)", "pol": "pm25", "stamp": 1421402400, "aqi": "104", "lat": "23.72333", "idx": 1306, "x": 4275, "img": "_c_azci9NzEtPyc9L13-2afOzXROg1JMda5-uXQYA", "lon": "114.6892", "utime": "Friday 18:00", "covered_area": 2.7822014880910206}, {"pol": "pm25", "img": "_c_azci9NzEtPyc9L1385Y_OzjfP1n_ZOf9a48sX29QA", "lat": "21.853611", "x": 4278, "sutime": "2015-01-16 19:00:00", "city": "Nan\\'en road, Yangjiang (\u9633\u6c5f\u5357\u6069\u8def)", "stamp": 1421406000, "aqi": "152", "idx": 865, "lon": "111.950833", "utime": "Friday 19:00", "covered_area": 0.9149287168563447}, {"city": "City Environmental Monitoring Station, Yunfu (\u4e91\u6d6e\u5e02\u73af\u5883\u76d1\u6d4b\u7ad9)", "pol": "pm25", "stamp": 1421402400, "aqi": "117", "lat": "22.939444", "idx": 1310, "x": 4289, "img": "_c_azci9NzEtPyc9L13-ya-Kzrev0n-5oet63_umi5uezgfzu56tnAgA", "lon": "112.036944", "utime": "Friday 18:00", "covered_area": 2.2966673694421513}, {"city": "Xianlin University Town , Nanjing (\u5357\u4eac\u4ed9\u6797\u5927\u5b66\u57ce)", "pol": "pm25", "stamp": 1421402400, "aqi": "236", "lat": "32.1091847", "idx": 1121, "x": 833, "img": "_ASEA3v9DTjpKaWFuZ3N1L-WNl-S6rC_ku5nmnpflpKflrabln44", "lon": "118.9148492", "utime": "Friday 18:00", "covered_area": 3.1449012706677077}, {"city": "Cihu No.2 elementary school, Maanshan (\u9a6c\u978d\u5c71\u6148\u6e56\u4e8c\u5c0f)", "pol": "pm25", "stamp": 1421402400, "aqi": "243", "lat": "31.750556", "idx": 1425, "x": 3592, "img": "_AR0A4v9DTjptZXAv6ams6Z6N5bGxL-aFiOa5luS6jOWwjw", "lon": "118.510556", "utime": "Friday 18:00", "covered_area": 3.2716007716722366}, {"pol": "pm25", "img": "_c_az8spMzEsvLtV_Nn3ByykLgdSup7taAA", "lat": "31.540237", "x": 867, "sutime": "2015-01-16 19:00:00", "city": " W\u00e0ngzhu\u0101ng, Wuxi (\u65e0\u9521\u65fa\u5e84)", "stamp": 1421406000, "aqi": "203", "idx": 874, "lon": "120.360119", "utime": "Friday 19:00", "covered_area": 4.294962284627714}, {"city": "Xinghu park, Nantong (\u5357\u901a\u661f\u6e56\u82b1\u56ed)", "pol": "pm25", "stamp": 1421402400, "aqi": "221", "lat": "31.93", "idx": 1344, "x": 845, "img": "_AR4A4f9DTjpKaWFuZ3N1L-WNl-mAmi_mmJ_muZboirHlm60", "lon": "120.94", "utime": "Friday 18:00", "covered_area": 2.6561228359022055}, {"city": "Hongmen police substation, Lianyungang (\u8fde\u4e91\u6e2f\u6d2a\u95e8\u6d3e\u51fa\u6240)", "pol": "pm25", "stamp": 1421402400, "aqi": "323", "lat": "34.5896", "idx": 1123, "x": 848, "img": "_ASQA2_9DTjpKaWFuZ3N1L-i_nuS6kea4ry_mtKrpl6jmtL7lh7rmiYA", "lon": "119.141", "utime": "Friday 18:00", "covered_area": 2.923590376041233}, {"city": "Xugou Nuclear Expert Village , Lianyungang (\u8fde\u4e91\u6e2f\u589f\u6c9f\u6838\u7535\u4e13\u5bb6\u6751)", "pol": "pm25", "stamp": 1421402400, "aqi": "177", "lat": "34.7507", "idx": 1310, "x": 849, "img": "_ASoA1f9DTjpKaWFuZ3N1L-i_nuS6kea4ry_lop_msp_moLjnlLXkuJPlrrbmnZE", "lon": "119.368", "utime": "Friday 18:00", "covered_area": 2.541784609890898}, {"city": "Hengrui pharmaceutical company, BDA, Lianyungang (\u8fde\u4e91\u6e2f\u5f00\u53d1\u533a\u6052\u745e\u533b\u836f\u516c\u53f8)", "pol": "pm25", "stamp": 1421402400, "aqi": "190", "lat": "34.6984", "idx": 1123, "x": 850, "img": "_ATAAz_9DTjpKaWFuZ3N1L-i_nuS6kea4ry_lvIDlj5HljLrmgZLnkZ7ljLvoja_lhazlj7g", "lon": "119.348", "utime": "Friday 18:00", "covered_area": 2.5535261193898147}, {"city": "Taoyuan road, Xuzhou (\u5f90\u5dde\u5e02\u6843\u56ed\u8def)", "pol": "pm25", "stamp": 1421402400, "aqi": "167", "lat": "34.2911", "idx": 1126, "x": 855, "img": "_c_az8spMzEsvLtV_um_C0-3z9J8tbH46e-2L7esB", "lon": "117.244", "utime": "Friday 18:00", "covered_area": 3.814743749243867}, {"city": "Lieshan government, Huaibei (\u6dee\u5317\u70c8\u5c71\u533a\u653f\u5e9c)", "pol": "pm25", "stamp": 1421402400, "aqi": "209", "lat": "33.8997", "idx": 1660, "x": 7104, "img": "_AR0A4v9DTjptZXAv5reu5YyXL-eDiOWxseWMuuaUv-W6nA", "lon": "116.8067", "utime": "Friday 18:00", "covered_area": 2.9053175981244523}, {"city": "New Town , Xuzhou (\u5f90\u5dde\u5e02\u65b0\u57ce\u533a)", "pol": "pm25", "stamp": 1421402400, "aqi": "163", "lat": "34.2153", "idx": 1125, "x": 854, "img": "_c_az8spMzEsvLtV_um_C0-3z9J9N2_B0ft_Tnl0A", "lon": "117.256", "utime": "Friday 18:00", "covered_area": 3.860356087450354}, {"city": "No. 4 Hospital, Yangzhou (\u626c\u5dde\u7b2c\u56db\u533b\u9662)", "pol": "pm25", "stamp": 1421402400, "aqi": "189", "lat": "32.4033", "idx": 1105, "x": 861, "img": "_AR4A4f9DTjpKaWFuZ3N1L-aJrOW3ni_nrKzlm5vljLvpmaI", "lon": "119.439", "utime": "Friday 18:00", "covered_area": 3.0552905537831245}, {"city": "Wujin Monitoring Station, Changzhou (\u5e38\u5dde\u6b66\u8fdb\u76d1\u6d4b\u7ad9)", "pol": "pm25", "stamp": 1421402400, "aqi": "201", "lat": "31.7039", "idx": 1323, "x": 874, "img": "_ASEA3v9DTjpKaWFuZ3N1L-W4uOW3ni_mrabov5vnm5HmtYvnq5k", "lon": "119.935", "utime": "Friday 18:00", "covered_area": 4.210468096855761}, {"city": "City Monitoring Station, Changzhou (\u5e38\u5dde\u5e02\u76d1\u6d4b\u7ad9)", "pol": "pm25", "stamp": 1421406000, "aqi": "225", "lat": "31.779235", "idx": 875, "x": 903, "img": "_c_az8spMzEsvLtV_umPH0-3zgFTT89kTn23tfr56JgA", "lon": "119.974677", "utime": "Friday 19:00", "covered_area": 4.239362612442303}, {"city": "New District Administrative office , Zhenjiang (\u9547\u6c5f\u65b0\u533a\u529e\u4e8b\u5904)", "pol": "pm25", "stamp": 1421402400, "aqi": "189", "lat": "32.1883", "idx": 1160, "x": 877, "img": "_ASEA3v9DTjpKaWFuZ3N1L-mVh-axny_mlrDljLrlip7kuovlpIQ", "lon": "119.68", "utime": "Friday 18:00", "covered_area": 3.5631923271024997}, {"pol": "pm25", "img": "_ASQA2_9DTjpKaWFuZ3N1L-azsOW3ni_nlZnlrabnlJ_liJvkuJrlm60", "lat": "32.4639", "x": 883, "sutime": "2015-01-16 19:00:00", "city": "Students Innovation Park , Taizhoushi (\u6cf0\u5dde\u7559\u5b66\u751f\u521b\u4e1a\u56ed)", "stamp": 1421406000, "aqi": "220", "idx": 878, "lon": "119.888", "utime": "Friday 19:00", "covered_area": 3.0096184196867464}, {"city": "Beijing South , Huai\\'an (\u6dee\u5b89\u5317\u4eac\u5357\u8def)", "pol": "pm25", "stamp": 1421402400, "aqi": "230", "lat": "33.575", "idx": 1130, "x": 885, "img": "_AR4A4f9DTjpKaWFuZ3N1L-a3ruWuiS_ljJfkuqzljZfot68", "lon": "119.007", "utime": "Friday 18:00", "covered_area": 1.1829082090390428}, {"city": "City Monitoring Station, Yancheng (\u76d0\u57ce\u5e02\u76d1\u6d4b\u7ad9)", "pol": "pm25", "stamp": 1421406000, "aqi": "304", "lat": "33.392028", "idx": 880, "x": 898, "img": "_AR4A4f9DTjpKaWFuZ3N1L-ebkOWfji_luILnm5HmtYvnq5k", "lon": "120.159463", "utime": "Friday 19:00", "covered_area": 0.41478523220979047}, {"city": "Suyu District Environmental Protection Agency , Suqian (\u5bbf\u8fc1\u5e02\u5bbf\u8c6b\u533a\u73af\u4fdd\u5c40)", "pol": "pm25", "stamp": 1421402400, "aqi": "265", "lat": "33.9506", "idx": 1168, "x": 896, "img": "_c_az8spMzEsvLtV_um7_i_2NYGrj6qc9u573rX-yf-7TjQ0A", "lon": "118.321", "utime": "Friday 18:00", "covered_area": 2.568873124215975}, {"city": "Suqian Middle School , Suqian (\u5bbf\u8fc1\u5e02\u5bbf\u8fc1\u4e2d\u5b66)", "pol": "pm25", "stamp": 1421402400, "aqi": "195", "lat": "33.9592", "idx": 1332, "x": 895, "img": "_c_az8spMzEsvLtV_um7_i_2NUOrJjrVP1y4DAA", "lon": "118.244", "utime": "Friday 18:00", "covered_area": 2.687500334625355}, {"city": "Hankou Huaqiao  (\u6c49\u53e3\u82b1\u6865)", "pol": "pm25", "stamp": 1421402400, "aqi": "175", "lat": "30.6196730729398", "idx": 1353, "x": 906, "img": "_c_azCi_NSMzTf7ax82n_4hddG58tXAoA", "lon": "114.282229640575", "utime": "Friday 18:00", "covered_area": 2.9020544354728814}, {"city": "Yuanshun Road (\u6c89\u6e56\u4e03\u58d5)", "pol": "pm25", "stamp": 1421402400, "aqi": "171", "lat": "30.29982222", "idx": 1264, "x": 913, "img": "_c_azCi_NSMzTf7ap89nOaU92ND9dPBUA", "lon": "113.8530639", "utime": "Friday 18:00", "covered_area": 3.5596050715714505}, {"city": "Causeway Bay (\u94dc\u9523\u6e7e)", "pol": "pm25", "stamp": 1421406000, "aqi": "173", "lat": "22.2800192", "idx": 1374, "x": 2570, "img": "_8_C2ck4sLU4tT6xUcEqsBAA", "lon": "114.1853357", "utime": "Friday 19:00", "covered_area": 2.959392872508126}, {"city": "No.1 Prison, Hohhot (\u547c\u548c\u6d69\u7279\u547c\u5e02\u4e00\u76d1)", "pol": "pm25", "stamp": 1421402400, "aqi": "87", "lat": "40.795085", "idx": 1364, "x": 934, "img": "_c_azyk0tKE9O0386cc_TST3Ptq583rkTzNnR9GRHw_PZEwE", "lon": "111.628978", "utime": "Friday 18:00", "covered_area": 0.4936321406768387}, {"city": "No.29 Middle School, Hohhot (\u547c\u548c\u6d69\u7279\u4e8c\u5341\u4e5d\u4e2d)", "pol": "pm25", "stamp": 1421402400, "aqi": "34", "lat": "40.277474", "idx": 1123, "x": 939, "img": "_ASMA3P9DTjptZXB3Y2Yv5ZG85ZKM5rWp54m5L-S6jOWNgeS5neS4rQ", "lon": "111.204041", "utime": "Friday 18:00", "covered_area": 0.7419219152733811}, {"city": "Normal Univertsity, Fuzhou (\u798f\u5dde\u5e08\u5927)", "pol": "pm25", "stamp": 1421402400, "aqi": "122", "lat": "26.038712", "idx": 1182, "x": 943, "img": "_c_azyk0tKE9O03--rP_p9nn6T3d0PF2yHAA", "lon": "119.309506", "utime": "Friday 18:00", "covered_area": 1.4334235363788093}, {"city": "No.5 Water Plant, Xining (\u897f\u5b81\u7b2c\u4e94\u6c34\u5382)", "pol": "pm25", "stamp": 1421402400, "aqi": "187", "lat": "36.617144", "idx": 1350, "x": 950, "img": "_AR0A4v9DTjptZXB3Y2Yv6KW_5a6BL-esrOS6lOawtOWOgg", "lon": "101.778228", "utime": "Friday 18:00", "covered_area": 1.2167298954638306}, {"pol": "pm25", "img": "_c_az8svMS0_K13-6ZNXT_iVPN_Q_XbsMAA", "lat": "29.866811", "x": 951, "sutime": "2015-01-16 10:00:00", "city": "Taigu Primary School (\u592a\u53e4\u5c0f\u5b66)", "stamp": 1421373600, "aqi": "-", "idx": 892, "lon": "121.596128", "utime": "Friday 10:00", "covered_area": 4.919310171461735}, {"pol": "pm25", "img": "_AR0A4v9DTjpOaW5nYm8v5aWJ5YyWL-eOr-S_neWkp-alvA", "lat": "29.668855", "x": 4687, "sutime": "2015-01-16 10:00:00", "city": "Fenghua EPB (\u5949\u5316/\u73af\u4fdd\u5927\u697c)", "stamp": 1421373600, "aqi": "-", "idx": 905, "lon": "121.416176", "utime": "Friday 10:00", "covered_area": 5.556703432645784}, {"pol": "pm25", "img": "_AR0A4v9DTjpOaW5nYm8v6LGh5bGxL-aWh-WzsOWwj-Wtpg", "lat": "29.473629", "x": 4689, "sutime": "2015-01-16 10:00:00", "city": "Wenfeng Primary School, Xiangshan (\u8c61\u5c71/\u6587\u5cf0\u5c0f\u5b66)", "stamp": 1421373600, "aqi": "-", "idx": 907, "lon": "121.885564", "utime": "Friday 10:00", "covered_area": 4.760140643610616}, {"pol": "pm25", "img": "_AR0A4v9DTjpOaW5nYm8v6LGh5bGxL-aWsOa4r-Wwj-Wtpg", "lat": "29.206723", "x": 4691, "sutime": "2015-01-16 10:00:00", "city": "Xingang Primary School, Xiangshan (\u8c61\u5c71/\u65b0\u6e2f\u5c0f\u5b66)", "stamp": 1421373600, "aqi": "-", "idx": 909, "lon": "121.94853", "utime": "Friday 10:00", "covered_area": 3.8764982026396586}, {"city": "Jianhe, Taiyuan (\u592a\u539f\u6da7\u6cb3)", "pol": "pm25", "stamp": 1421402400, "aqi": "191", "lat": "37.9103", "idx": 1457, "x": 1239, "img": "_c_azyk0t0H-6ZNXTvvn6z7Ytf7ZpMwA", "lon": "112.573", "utime": "Friday 18:00", "covered_area": 2.499712756444638}, {"city": "Nandu compound, Jinzhong (\u664b\u4e2d\u5357\u90fd\u5c0f\u533a)", "pol": "pm25", "stamp": 1421402400, "aqi": "82", "lat": "37.71247959318803", "idx": 1386, "x": 3528, "img": "_c_azyk0t0H82s_vJjrX6T3unv2ze-3RD_9OeXQA", "lon": "112.7255630493164", "utime": "Friday 18:00", "covered_area": 2.633741741263021}, {"city": "D\u014dngru\u01cen, Shenyang (\u6c88\u9633\u4e1c\u8f6f)", "pol": "pm25", "stamp": 1421402400, "aqi": "151", "lat": "41.7089", "idx": 1207, "x": 1249, "img": "_c_azyk0t0H-2qePljM36T3bMebF3PQA", "lon": "123.439", "utime": "Friday 18:00", "covered_area": 4.928525236187449}, {"city": "Ganjingzi, Dalian (\u5927\u8fde\u7518\u4e95\u5b50)", "pol": "pm25", "stamp": 1421406000, "aqi": "112", "lat": "38.973888889", "idx": 917, "x": 1258, "img": "_ARcA6P9DTjptZXAv5aSn6L-eL-eUmOS6leWtkA", "lon": "121.61194444", "utime": "Friday 19:00", "covered_area": 0.7504452442031047}, {"city": "D&D Port, Dalian (\u5927\u8fde\u53ccD\u6e2f)", "pol": "pm25", "stamp": 1421406000, "aqi": "104", "lat": "39.0631", "idx": 897, "x": 1267, "img": "_c_azyk0t0H-6ZPmL_fP0n_b3uDzbsR4A", "lon": "121.9769", "utime": "Friday 19:00", "covered_area": 0.7504452442031047}, {"city": "Bus Factory, Changchun (\u957f\u6625\u5ba2\u8f66\u5382)", "pol": "pm25", "stamp": 1421402400, "aqi": "167", "lat": "43.91", "idx": 1180, "x": 1269, "img": "_c_azyk0t0H85df-zGUv1n65b9GLvsqd9TQA", "lon": "125.287", "utime": "Friday 18:00", "covered_area": 2.187687617402368}, {"pol": "pm25", "img": "_ARcA6P9DTjptZXAv6ZW_5pilL-eUqea5vuWtkA", "lat": "43.55", "x": 1274, "sutime": "2015-01-16 19:00:00", "city": "Shuaiwanzi, Changchun (\u957f\u6625\u7529\u6e7e\u5b50)", "stamp": 1421406000, "aqi": "157", "idx": 916, "lon": "125.633", "utime": "Friday 19:00", "covered_area": 2.278602459308259}, {"city": "Daishan Park, Changchun (\u957f\u6625\u5cb1\u5c71\u516c\u56ed)", "pol": "pm25", "stamp": 1421402400, "aqi": "170", "lat": "43.85", "idx": 1367, "x": 1277, "img": "_ARoA5f9DTjptZXAv6ZW_5pilL-WyseWxseWFrOWbrQ", "lon": "125.217", "utime": "Friday 18:00", "covered_area": 2.2807496137032617}, {"city": "Mingzhu Plaza, Hefei (\u5408\u80a5\u660e\u73e0\u5e7f\u573a)", "pol": "pm25", "stamp": 1421402400, "aqi": "292", "lat": "31.7848", "idx": 1392, "x": 1290, "img": "_c_azyk0t0H86oeNF01L9ZzP6nvcveLpz_9M5uwA", "lon": "117.196", "utime": "Friday 18:00", "covered_area": 4.145149198455872}, {"city": "Sanli Street, Hefei (\u5408\u80a5\u4e09\u91cc\u8857)", "pol": "pm25", "stamp": 1421402400, "aqi": "289", "lat": "31.8766", "idx": 1172, "x": 1291, "img": "_c_azyk0t0H86oeNF01L9Jzs6X7b3vFg4HQA", "lon": "117.307", "utime": "Friday 18:00", "covered_area": 4.3489411301096155}, {"city": "Lake district, Hefei (\u5408\u80a5\u6ee8\u6e56\u65b0\u533a)", "pol": "pm25", "stamp": 1421402400, "aqi": "257", "lat": "31.7386", "idx": 1225, "x": 1298, "img": "_ARoA5f9DTjptZXAv5ZCI6IKlL-a7qOa5luaWsOWMug", "lon": "117.278", "utime": "Friday 18:00", "covered_area": 4.244217902595191}, {"city": "Xidong, Xiamen (\u53a6\u95e8\u6eaa\u4e1c)", "pol": "pm25", "stamp": 1421402400, "aqi": "154", "lat": "24.818055556", "idx": 1227, "x": 1300, "img": "_c_azyk0t0H_at-zl9BX6z3aterJjDgA", "lon": "118.15694444", "utime": "Friday 18:00", "covered_area": 2.8958788808139992}, {"city": "Gulangyu, Xiamen (\u53a6\u95e8\u9f13\u6d6a\u5c7f)", "pol": "pm25", "stamp": 1421402400, "aqi": "117", "lat": "24.445833333", "idx": 1228, "x": 1302, "img": "_c_azyk0t0H_at-zl9BX6L_dMfrZ11dON-wE", "lon": "118.06361111", "utime": "Friday 18:00", "covered_area": 2.727384405087463}, {"city": "Petrifaction Company, Nanchang (\u5357\u660c\u77f3\u5316)", "pol": "pm25", "stamp": 1421402400, "aqi": "169", "lat": "28.612039", "idx": 1231, "x": 1311, "img": "_c_azyk0t0H_aO_3ZjB795_M3P-2ZBgA", "lon": "115.908167", "utime": "Friday 18:00", "covered_area": 0.9984702208048841}, {"city": "Martial Arts School, Nanchang (\u5357\u660c\u6b66\u672f\u5b66\u6821)", "pol": "pm25", "stamp": 1421402400, "aqi": "134", "lat": "28.797646", "idx": 1371, "x": 1310, "img": "_c_azyk0t0H_aO_3ZjB79Z2uXPZuz_imQXLAQAA", "lon": "115.747755", "utime": "Friday 18:00", "covered_area": 1.1381880456533953}, {"city": "No. 47 middle school, Zhengzhou (\u90d1\u5dde\u56db\u5341\u4e03\u4e2d)", "pol": "pm25", "stamp": 1421402400, "aqi": "178", "lat": "34.7732", "idx": 1184, "x": 1318, "img": "_c_azyk0t0H_ZPPHp9nn6T2fPftrb-GRH85MdawE", "lon": "113.7339", "utime": "Friday 18:00", "covered_area": 4.256839571134105}, {"city": "City Monitoring Station, Zhengzhou (\u90d1\u5dde\u5e02\u76d1\u6d4b\u7ad9)", "pol": "pm25", "stamp": 1421402400, "aqi": "151", "lat": "34.7496", "idx": 1185, "x": 1319, "img": "_ARoA5f9DTjptZXAv6YOR5beeL-W4guebkea1i-ermQ", "lon": "113.5991", "utime": "Friday 18:00", "covered_area": 4.279951485816886}, {"city": "No.4 middle school, Zhuzhou (\u682a\u6d32\u5e02\u56db\u4e2d)", "pol": "pm25", "stamp": 1421402400, "aqi": "254", "lat": "27.797906", "idx": 1280, "x": 1433, "img": "_c_azyk0t0H-2YNWzLZv0n-5oejp79pMdawE", "lon": "113.190211", "utime": "Friday 18:00", "covered_area": 2.0650511737223045}, {"city": "Shaping, Changsha (\u957f\u6c99\u6c99\u576a)", "pol": "pm25", "stamp": 1421402400, "aqi": "206", "lat": "28.3586", "idx": 1242, "x": 1331, "img": "_c_azyk0t0H85df-zTTP1gfjp3FUA", "lon": "112.996", "utime": "Friday 18:00", "covered_area": 2.1925586565020088}, {"city": "Xianhu, Nanning (\u5357\u5b81\u4ed9\u846b)", "pol": "pm25", "stamp": 1421402400, "aqi": "170", "lat": "22.7906", "idx": 1244, "x": 1336, "img": "_c_azyk0t0H_aO_3pukb9J7tnvpi4GgA", "lon": "108.439", "utime": "Friday 18:00", "covered_area": 2.2087227907866245}, {"city": "District Agricultural Vocational College, Nanning (\u5357\u5b81\u533a\u519c\u804c\u9662)", "pol": "pm25", "stamp": 1421402400, "aqi": "169", "lat": "22.8464", "idx": 1376, "x": 1337, "img": "_c_azyk0t0H_aO_3pukb9pz27nrbNedHY83LmIgA", "lon": "108.239", "utime": "Friday 18:00", "covered_area": 2.160634917358494}, {"city": "Yinghua jiayuan, Nanning (\u5357\u5b81\u82f1\u82b1\u5609\u56ed)", "pol": "pm25", "stamp": 1421402400, "aqi": "173", "lat": "22.735", "idx": 1399, "x": 1338, "img": "_c_azyk0t0H_aO_3pukb9F90bX3RtfDqj8-nstQA", "lon": "108.328", "utime": "Friday 18:00", "covered_area": 2.395755454514046}, {"city": "Longhua road EPA dormitory, Haikou (\u6d77\u53e3\u9f99\u534e\u8def\u73af\u4fdd\u5c40\u5bbf\u820d)", "pol": "pm25", "stamp": 1421402400, "aqi": "114", "lat": "20.03565", "idx": 1380, "x": 1344, "img": "_ASYA2f9DTjptZXAv5rW35Y-jL-m-meWNjui3r-eOr-S_neWxgOWuv-iIjQ", "lon": "110.33025", "utime": "Friday 18:00", "covered_area": 2.9932852177831766}, {"city": "Tiansheng, Chongqing (\u91cd\u5e86\u5929\u751f)", "pol": "pm25", "stamp": 1421406000, "aqi": "265", "lat": "29.8264", "idx": 909, "x": 1347, "img": "_c_azyk0t0H_Z3vt0V5v-0yUrn0-ZDwA", "lon": "106.424", "utime": "Friday 19:00", "covered_area": 1.5367424707165314}, {"city": "Liberation Monument, Chongqing (\u91cd\u5e86\u89e3\u653e\u7891)", "pol": "pm25", "stamp": 1421402400, "aqi": "283", "lat": "29.5642", "idx": 1193, "x": 1354, "img": "_c_azyk0t0H_Z3vt0V5v-i-WLn03Z93zRRAA", "lon": "106.571", "utime": "Friday 18:00", "covered_area": 0.9993572959737258}, {"pol": "pm25", "img": "_c_azyk0t0H_WMeFl8179541bn25a-XT9LgA", "lat": "31.0283", "x": 1367, "sutime": "2015-01-16 19:00:00", "city": "Lingyansi, Chengdu (\u6210\u90fd\u7075\u5ca9\u5bfa)", "stamp": 1421406000, "aqi": "178", "idx": 920, "lon": "103.613", "utime": "Friday 19:00", "covered_area": 1.4081458469663808}, {"city": "City EPA station, Guiyang (\u8d35\u9633\u5e02\u73af\u4fdd\u7ad9)", "pol": "pm25", "stamp": 1421406000, "aqi": "203", "lat": "26.5689", "idx": 921, "x": 1369, "img": "_ARoA5f9DTjptZXAv6LS16ZizL-W4gueOr-S_neermQ", "lon": "106.6971", "utime": "Friday 19:00", "covered_area": 0.7602845927296584}, {"city": "Gu\u0101nsh\u00e0ng, Kunming (\u6606\u660e\u5173\u4e0a)", "pol": "pm25", "stamp": 1421402400, "aqi": "89", "lat": "25.0124", "idx": 1256, "x": 1377, "img": "_c_azyk0t0H82o-3ZjD79p62bn-zoAgA", "lon": "102.743", "utime": "Friday 18:00", "covered_area": 1.8965804909103108}, {"city": "Chenggong New Area, Kunming (\u6606\u660e\u5448\u8d21\u65b0\u533a)", "pol": "pm25", "stamp": 1421402400, "aqi": "70", "lat": "24.8885", "idx": 1181, "x": 1378, "img": "_c_azyk0t0H82o-3ZjD79pxM7XmxZ-Gzahqc9uwA", "lon": "102.821", "utime": "Friday 18:00", "covered_area": 1.9031048141971216}, {"pol": "pm25", "img": "_c_azyk0t0H_W3fliwgr9p62rn-6e_GLhdAA", "lat": "29.635", "x": 1384, "sutime": "2015-01-16 19:00:00", "city": "Bakuo street, Lhasa (\u62c9\u8428\u516b\u5ed3\u8857)", "stamp": 1421406000, "aqi": "74", "idx": 925, "lon": "91.1303", "utime": "Friday 19:00", "covered_area": 0.8805705725529276}, {"city": "Fangzhicheng, Xian (\u897f\u5b89\u7eba\u7ec7\u57ce)", "pol": "pm25", "stamp": 1421402400, "aqi": "147", "lat": "34.2572", "idx": 1377, "x": 1392, "img": "_c_azyk0t0H-xdP_TdZ36z3fter67_en8PgA", "lon": "109.06", "utime": "Friday 18:00", "covered_area": 2.739811469505257}, {"city": "Gaoxin West Area, Xian (\u897f\u5b89\u9ad8\u65b0\u897f\u533a)", "pol": "pm25", "stamp": 1421402400, "aqi": "156", "lat": "34.2303", "idx": 1264, "x": 1395, "img": "_c_azyk0t0H-xdP_TdZ36L1fPeDZtA4jTswsA", "lon": "108.883", "utime": "Friday 18:00", "covered_area": 2.689380998699679}, {"city": "Lanlian hotel, Lanzhou (\u5170\u5dde\u5170\u70bc\u5bbe\u9986)", "pol": "pm25", "stamp": 1421402400, "aqi": "176", "lat": "36.1031", "idx": 1391, "x": 1404, "img": "_c_azyk0t0H_auuHp9nkg6nnTnqfr9r1c1gYA", "lon": "103.631", "utime": "Friday 18:00", "covered_area": 1.5499963075896703}, {"city": "Railway Design Institute, Lanzhou (\u5170\u5dde\u94c1\u8def\u8bbe\u8ba1\u9662)", "pol": "pm25", "stamp": 1421402400, "aqi": "173", "lat": "36.0464", "idx": 1407, "x": 1407, "img": "_AR0A4v9DTjptZXAv5YWw5beeL-mTgei3r-iuvuiuoemZog", "lon": "103.831", "utime": "Friday 18:00", "covered_area": 1.724367225419369}, {"city": "Ninghua living area, Yinchuan (\u94f6\u5ddd\u5b81\u5316\u751f\u6d3b\u533a)", "pol": "pm25", "stamp": 1421402400, "aqi": "179", "lat": "38.4858", "idx": 1270, "x": 1410, "img": "_AR0A4v9DTjptZXAv6ZO25bedL-WugeWMlueUn-a0u-WMug", "lon": "106.072", "utime": "Friday 18:00", "covered_area": 2.2491527121806887}, {"city": "No.31 middle school, Wulumuqi (\u4e4c\u9c81\u6728\u9f50\u4e09\u5341\u4e00\u4e2d\u5b66)", "pol": "pm25", "stamp": 1421402400, "aqi": "112", "lat": "43.831", "idx": 1393, "x": 1417, "img": "_ASMA3P9DTjptZXAv5LmM6bKB5pyo6b2QL-S4ieWNgeS4gOS4reWtpg", "lon": "87.6432", "utime": "Friday 18:00", "covered_area": 0.6570153909732084}, {"city": "Tongmuling, Guiyang (\u8d35\u9633\u6850\u6728\u5cad)", "pol": "pm25", "stamp": 1421406000, "aqi": "178", "lat": "26.3003", "idx": 929, "x": 1422, "img": "_ARcA6P9DTjptZXAv6LS16ZizL-ahkOacqOWyrQ", "lon": "106.805", "utime": "Friday 19:00", "covered_area": 0.7602845927296584}, {"city": "Yinhu Lane, Yinchuan (\u94f6\u5ddd\u94f6\u6e56\u5df7)", "pol": "pm25", "stamp": 1421402400, "aqi": "166", "lat": "38.4744", "idx": 1277, "x": 1423, "img": "_c_azyk0t0H85edvT7XNB1LOd055u3w4A", "lon": "106.2682", "utime": "Friday 18:00", "covered_area": 2.29594693914002}, {"city": "Sh\u00e1osh\u0101n, Xiangtan (\u6e58\u6f6d\u97f6\u5c71)", "pol": "pm25", "stamp": 1421402400, "aqi": "187", "lat": "27.915005", "idx": 1396, "x": 1430, "img": "_c_azyk0t0H-2c8azvWv1X87f9nTjRgA", "lon": "112.526502", "utime": "Friday 18:00", "covered_area": 1.897991685082299}, {"city": "Dajing, Zhuzhou (\u682a\u6d32\u5927\u4eac\u98ce\u666f\u533a)", "pol": "pm25", "stamp": 1421402400, "aqi": "248", "lat": "27.833611", "idx": 1397, "x": 1436, "img": "_AR0A4v9DTjptZXAv5qCq5rSyL-Wkp-S6rOmjjuaZr-WMug", "lon": "113.251389", "utime": "Friday 18:00", "covered_area": 2.023856669588909}, {"city": "City Environmental Monitoring Station, Baotou (\u5305\u5934\u5e02\u73af\u5883\u76d1\u6d4b\u7ad9)", "pol": "pm25", "stamp": 1421402400, "aqi": "114", "lat": "40.656111", "idx": 1398, "x": 3410, "img": "_ASAA3_9DTjptZXAv5YyF5aS0L-W4gueOr-Wig-ebkea1i-ermQ", "lon": "109.881111", "utime": "Friday 18:00", "covered_area": 0.5667634564551542}, {"city": "Huatai Automobile Mall, Eerduosi (\u9102\u5c14\u591a\u65af\u534e\u6cf0\u6c7d\u8f66\u57ce)", "pol": "pm25", "stamp": 1421402400, "aqi": "53", "lat": "39.836074", "idx": 1284, "x": 3419, "img": "_ASMA3P9DTjptZXAv6YSC5bCU5aSa5pavL-WNjuazsOaxvei9puWfjg", "lon": "109.96657", "utime": "Friday 18:00", "covered_area": 1.2374164199730786}, {"city": "Eerduosi (\u9102\u5c14\u591a\u65af)", "pol": "pm25", "stamp": 1421402400, "aqi": "53", "lat": "39.608266", "idx": 1442, "x": 3477, "img": "Eerduosi", "lon": "109.781327", "utime": "Friday 18:00", "covered_area": 0.9081661944465405}, {"city": "Tushan Street, Quanzhou (\u6cc9\u5dde\u6d82\u5c71\u8857)", "pol": "pm25", "stamp": 1421402400, "aqi": "102", "lat": "24.911667", "idx": 1206, "x": 3422, "img": "_c_azyk0t0H-2ufPp9nn6z7Y1Pd248cXC6QA", "lon": "118.581944", "utime": "Friday 18:00", "covered_area": 2.399923211624133}, {"city": "Zhuyuangou, Baoji (\u5b9d\u9e21\u7af9\u56ed\u6c9f)", "pol": "pm25", "stamp": 1421402400, "aqi": "74", "lat": "34.301667", "idx": 1287, "x": 3426, "img": "_ARcA6P9DTjptZXAv5a6d6bihL-erueWbreaynw", "lon": "107.076667", "utime": "Friday 18:00", "covered_area": 0.8699605247980982}, {"city": "Technical Schools, Baoji (\u5b9d\u9e21\u6280\u5de5\u5b66\u6821)", "pol": "pm25", "stamp": 1421402400, "aqi": "158", "lat": "34.373889", "idx": 1209, "x": 3428, "img": "_ARoA5f9DTjptZXAv5a6d6bihL-aKgOW3peWtpuagoQ", "lon": "100.118611", "utime": "Friday 18:00", "covered_area": 0.8740759327687657}, {"city": "Chencang EPA compound, Baoji (\u5b9d\u9e21\u9648\u4ed3\u533a\u73af\u4fdd\u5c40\u5bb6\u5c5e\u697c)", "pol": "pm25", "stamp": 1421402400, "aqi": "65", "lat": "34.380278", "idx": 1184, "x": 3429, "img": "_ASkA1v9DTjptZXAv5a6d6bihL-mZiOS7k-WMuueOr-S_neWxgOWutuWxnualvA", "lon": "107.465556", "utime": "Friday 18:00", "covered_area": 0.8709713429653918}, {"city": "Haitan Park, Beihai (\u5317\u6d77\u6d77\u6ee9\u516c\u56ed)", "pol": "pm25", "stamp": 1421406000, "aqi": "152", "lat": "21.404167", "idx": 931, "x": 3430, "img": "_c_azyk0t0H_aM_3Z1u36QPxs98qnrWuezl4LAA", "lon": "109.153333", "utime": "Friday 19:00", "covered_area": 0.7634182799469735}, {"city": "Auditing bureau, Changzhi (\u957f\u6cbb\u5ba1\u8ba1\u5c40)", "pol": "pm25", "stamp": 1421402400, "aqi": "99", "lat": "36.212611", "idx": 1369, "x": 3435, "img": "_c_azyk0t0H85df-zTbv1n65b-GLdwqcbGwA", "lon": "113.088556", "utime": "Friday 18:00", "covered_area": 1.3997011071041445}, {"city": "college of education, Datong (\u5927\u540c\u6559\u80b2\u5b66\u9662)", "pol": "pm25", "stamp": 1421402400, "aqi": "55", "lat": "40.084444", "idx": 1481, "x": 3443, "img": "_ARoA5f9DTjptZXAv5aSn5ZCML-aVmeiCsuWtpumZog", "lon": "113.271111", "utime": "Friday 18:00", "covered_area": 1.1646591194638698}, {"city": "L\u00edng\u0101ng hospital, Linfen (\u4e34\u6c7e\u4e34\u94a2\u533b\u9662)", "pol": "pm25", "stamp": 1421402400, "aqi": "102", "lat": "36.078333", "idx": 1483, "x": 3447, "img": "_c_azyk0t0H-yY8uzjftA1MtJi5727H45cxEA", "lon": "111.553056", "utime": "Friday 18:00", "covered_area": 0.0}, {"city": "No.9 middle school, Liuzhou (\u67f3\u5dde\u5e02\u4e5d\u4e2d)", "pol": "pm25", "stamp": 1421402400, "aqi": "184", "lat": "24.384444", "idx": 1214, "x": 3453, "img": "_c_azyk0t0H82f_PT7fP0n-5oerJz7pMdawE", "lon": "109.377222", "utime": "Friday 18:00", "covered_area": 0.8413726514808073}, {"city": "No.4 middle school, Liuzhou (\u67f3\u5dde\u5e02\u56db\u4e2d)", "pol": "pm25", "stamp": 1421402400, "aqi": "182", "lat": "24.2", "idx": 1213, "x": 3452, "img": "_c_azyk0t0H82f_PT7fP0n-5oejp79pMdawE", "lon": "109.42", "utime": "Friday 18:00", "covered_area": 0.8413726514808073}, {"city": "Monitoring station, Guilin (\u6842\u6797\u76d1\u6d4b\u7ad9)", "pol": "pm25", "stamp": 1421402400, "aqi": "168", "lat": "25.257", "idx": 1300, "x": 3581, "img": "_c_azyk0t0H-2sOnZvOn6z2dPfLa1-_nqmQA", "lon": "110.242", "utime": "Friday 18:00", "covered_area": 1.9260670878705524}, {"city": "Longyin Street primiary school, Guilin (\u6842\u6797\u9f99\u9690\u8def\u5c0f\u5b66)", "pol": "pm25", "stamp": 1421402400, "aqi": "167", "lat": "25.2708", "idx": 1551, "x": 7181, "img": "_AR0A4v9DTjptZXAv5qGC5p6XL-m-memakOi3r-Wwj-Wtpg", "lon": "110.3089", "utime": "Friday 18:00", "covered_area": 1.898974627834555}, {"city": "No.8 middle school, Guilin (\u6842\u6797\u516b\u4e2d)", "pol": "pm25", "stamp": 1421402400, "aqi": "168", "lat": "25.23577778", "idx": 1186, "x": 3583, "img": "_c_azyk0t0H-2sOnZvOn6T1tXP9mxFgA", "lon": "110.258", "utime": "Friday 18:00", "covered_area": 1.929614920134553}, {"city": "X\u012bnq\u016b gu\u01cenw\u011bihu\u00ec, Tongchuan (\u94dc\u5ddd\u65b0\u533a\u7ba1\u59d4\u4f1a)", "pol": "pm25", "stamp": 1421402400, "aqi": "144", "lat": "35.833333", "idx": 1187, "x": 3454, "img": "_AR0A4v9DTjptZXAv6ZOc5bedL-aWsOWMuueuoeWnlOS8mg", "lon": "108.75", "utime": "Friday 18:00", "covered_area": 1.63781008016818}, {"city": "X\u012bnq\u016b l\u00e1nzh\u012b g\u014dngs\u012b, Tongchuan (\u94dc\u5ddd\u65b0\u533a\u5170\u829d\u516c\u53f8)", "pol": "pm25", "stamp": 1421402400, "aqi": "489", "lat": "34.908916", "idx": 1217, "x": 4417, "img": "_ASAA3_9DTjptZXAv6ZOc5bedL-aWsOWMuuWFsOiKneWFrOWPuA", "lon": "108.980514", "utime": "Friday 18:00", "covered_area": 2.424325048360169}, {"city": "G\u0101ox\u012bn y\u012b xi\u01ceo, Weinan (\u6e2d\u5357\u9ad8\u65b0\u4e00\u5c0f)", "pol": "pm25", "stamp": 1421402400, "aqi": "117", "lat": "34.505001", "idx": 1406, "x": 4418, "img": "_ARoA5f9DTjptZXAv5rit5Y2XL-mrmOaWsOS4gOWwjw", "lon": "109.430783", "utime": "Friday 18:00", "covered_area": 2.278538239112181}, {"city": "Weather Monitoring Station, Xianyang (\u54b8\u9633\u6c14\u8c61\u7ad9)", "pol": "pm25", "stamp": 1421402400, "aqi": "235", "lat": "34.395833", "idx": 1394, "x": 3462, "img": "_ARcA6P9DTjptZXAv5ZK46ZizL-awlOixoeermQ", "lon": "108.72", "utime": "Friday 18:00", "covered_area": 2.7482478645674284}, {"city": "Normal university, Xianyang (\u54b8\u9633\u5e08\u8303\u5b66\u9662)", "pol": "pm25", "stamp": 1421402400, "aqi": "164", "lat": "35.833333", "idx": 1219, "x": 3461, "img": "_ARoA5f9DTjptZXAv5ZK46ZizL-W4iOiMg-WtpumZog", "lon": "108.725833", "utime": "Friday 18:00", "covered_area": 1.6395934872709637}, {"city": "University Hospital, Yanan (\u5ef6\u5b89\u5ef6\u5927\u533b\u9644\u9662)", "pol": "pm25", "stamp": 1421402400, "aqi": "184", "lat": "36.6", "idx": 1220, "x": 3465, "img": "_c_azyk0t0H-6e9vTdZ1gasnypz27X85seTlzEQA", "lon": "109.478889", "utime": "Friday 18:00", "covered_area": 0.40627970823604254}, {"city": "P\u00edngt\u01cen, Yangquan (\u9633\u6cc9\u5e73\u5766)", "pol": "pm25", "stamp": 1421402400, "aqi": "110", "lat": "37.8475", "idx": 1489, "x": 3470, "img": "_c_azyk0t0H85Y_OzzZ36T3dufjp3GQA", "lon": "113.572222", "utime": "Friday 18:00", "covered_area": 3.5664833859696516}, {"city": "City Monitoring Station, Yuxi (\u7389\u6eaa\u5e02\u76d1\u6d4b\u7ad9)", "pol": "pm25", "stamp": 1421402400, "aqi": "72", "lat": "24.360278", "idx": 1223, "x": 3474, "img": "_c_azyk0t0H_e1_ls1yr9pzuans-e-Gxr9_PVMwE", "lon": "102.543333", "utime": "Friday 18:00", "covered_area": 0.953505919104626}, {"city": "Songshan No.1 Middle School, Chifeng (\u8d64\u5cf0\u677e\u5c71\u4e00\u4e2d)", "pol": "pm25", "stamp": 1421402400, "aqi": "63", "lat": "42.327222", "idx": 1304, "x": 3586, "img": "_ARoA5f9DTjptZXAv6LWk5bOwL-advuWxseS4gOS4rQ", "lon": "118.786667", "utime": "Friday 18:00", "covered_area": 1.1631674760047352}, {"city": "Songshan Road, Chifeng (\u8d64\u5cf0\u677e\u5c71\u8def)", "pol": "pm25", "stamp": 1421402400, "aqi": "76", "lat": "42.1695449", "idx": 1225, "x": 3588, "img": "_ARcA6P9DTjptZXAv6LWk5bOwL-advuWxsei3rw", "lon": "118.8888518", "utime": "Friday 18:00", "covered_area": 1.149382940434987}, {"city": "Dandong (\u4e39\u4e1c)", "pol": "pm25", "stamp": 1421402400, "aqi": "134", "lat": "40.0005", "idx": 1441, "x": 3476, "img": "Dandong", "lon": "124.354707", "utime": "Friday 18:00", "covered_area": 1.2915348592422067}, {"city": "Experimental Primary School, Dandong (\u4e39\u4e1c\u5b9e\u9a8c\u5c0f\u5b66)", "pol": "pm25", "stamp": 1421402400, "aqi": "134", "lat": "39.885819", "idx": 1419, "x": 3495, "img": "_ARoA5f9DTjptZXAv5Li55LicL-WunumqjOWwj-Wtpg", "lon": "124.152274", "utime": "Friday 18:00", "covered_area": 1.3533360109355157}, {"city": "BDA, Panjin (\u76d8\u9526\u5f00\u53d1\u533a)", "pol": "pm25", "stamp": 1421402400, "aqi": "156", "lat": "41.155037", "idx": 1226, "x": 3496, "img": "_c_azyk0t0H8-e8bLKcv0n-5peNo_8WnPLgA", "lon": "122.060968", "utime": "Friday 18:00", "covered_area": 3.78894905267647}, {"city": "Botanical garden, Yingkou (\u8425\u53e3\u690d\u7269\u56ed)", "pol": "pm25", "stamp": 1421402400, "aqi": "156", "lat": "40.710069", "idx": 1309, "x": 3502, "img": "_c_azyk0t0H8xYenT_sX6z5b0Pu9c-XT2WgA", "lon": "122.276386", "utime": "Friday 18:00", "covered_area": 3.2944948845097377}, {"city": "Yingkou (\u8425\u53e3)", "pol": "pm25", "stamp": 1421402400, "aqi": "156", "lat": "40.667012", "idx": 1444, "x": 3480, "img": "Yingkou", "lon": "122.235418", "utime": "Friday 18:00", "covered_area": 3.1337892764449986}, {"city": "Xishanpo, Huludao (\u846b\u82a6\u5c9b\u846b\u82a6\u5c9b\u5e02\u897f\u5c71\u5761)", "pol": "pm25", "stamp": 1421402400, "aqi": "149", "lat": "40.722688", "idx": 1409, "x": 3503, "img": "_c_azyk0t0H8xcfWLrmVPN81GsJ7uaHqxdP_TjRufzl0IAA", "lon": "120.916878", "utime": "Friday 18:00", "covered_area": 1.8597835135123812}, {"city": "Baigu Water Plant, Jinzhou (\u9526\u5dde\u767e\u80a1\u6c34\u5382)", "pol": "pm25", "stamp": 1421402400, "aqi": "164", "lat": "41.1219", "idx": 1248, "x": 4369, "img": "_ARoA5f9DTjptZXAv6ZSm5beeL-eZvuiCoeawtOWOgg", "lon": "121.2008", "utime": "Friday 18:00", "covered_area": 2.850087019453181}, {"city": "Fupin district, Qingyuan (\u6e05\u8fdc\u6276\u8d2b\u533a)", "pol": "pm25", "stamp": 1421402400, "aqi": "68", "lat": "24.18802", "idx": 1311, "x": 3509, "img": "_c_azyk0t0H-2o_XF_jn6zzq3vdiy-mnPLgA", "lon": "113.4137742", "utime": "Friday 18:00", "covered_area": 2.217511166294434}, {"city": "City water company, Heyuan (\u6cb3\u6e90\u5e02\u81ea\u6765\u6c34\u5382)", "pol": "pm25", "stamp": 1421402400, "aqi": "109", "lat": "23.6914366", "idx": 1410, "x": 3510, "img": "_AR0A4v9DTjptZXAv5rKz5rqQL-W4guiHquadpeawtOWOgg", "lon": "114.950036", "utime": "Friday 18:00", "covered_area": 2.222821525314305}, {"city": "Movie and Film Studio Base, Jiaozuo (\u7126\u4f5c\u5f71\u89c6\u57ce)", "pol": "pm25", "stamp": 1421402400, "aqi": "189", "lat": "35.268778", "idx": 1439, "x": 4443, "img": "_c_azyk0t0H_esuzJ3jn6T_dufLG87en8PgA", "lon": "113.199278", "utime": "Friday 18:00", "covered_area": 3.8081698442208864}, {"city": "No.2 middle school, Shuozhou (\u6714\u5dde\u5e02\u4e8c\u4e2d)", "pol": "pm25", "stamp": 1421402400, "aqi": "95", "lat": "39.37677199661635", "idx": 1500, "x": 3525, "img": "_c_azyk0t0H82Z8rT7fP0n-5oerKr58mOtQA", "lon": "112.4260139465332", "utime": "Friday 18:00", "covered_area": 0.3975737245294304}, {"city": "Jinzhong (\u664b\u4e2d)", "pol": "pm25", "stamp": 1421402400, "aqi": "78", "lat": "37.687024", "idx": 1410, "x": 3543, "img": "Jinzhong", "lon": "112.752695", "utime": "Friday 18:00", "covered_area": 2.598021794855244}, {"city": "City government, Sanmenxia (\u4e09\u95e8\u5ce1\u5e02\u653f\u5e9c)", "pol": "pm25", "stamp": 1421402400, "aqi": "180", "lat": "34.777222", "idx": 1362, "x": 4311, "img": "_ARoA5f9DTjptZXAv5LiJ6Zeo5bOhL-W4guaUv-W6nA", "lon": "111.192778", "utime": "Friday 18:00", "covered_area": 0.1574241177796023}, {"city": "Jiyin, Xinzhou (\u5ffb\u5dde\u673a\u5f15)", "pol": "pm25", "stamp": 1421402400, "aqi": "42", "lat": "38.41271038284709", "idx": 1505, "x": 3535, "img": "_c_azyk0t0H-6f_fT7fP0n83Z9XTPVAA", "lon": "112.7358627319336", "utime": "Friday 18:00", "covered_area": 1.8632742513319651}, {"city": "Soybean factory, Luliang (\u5415\u6881\u8c46\u5236\u54c1\u5382)", "pol": "pm25", "stamp": 1421402400, "aqi": "59", "lat": "37.516091537017445", "idx": 1508, "x": 3539, "img": "_c_azyk0t0H86YeqzRY36Lza2Pe3Y9nRy49O-JgA", "lon": "111.1287260055542", "utime": "Friday 18:00", "covered_area": 0.0}, {"city": "Municipal Science and Technology Commission, Jinchang (\u91d1\u660c\u5e02\u79d1\u59d4)", "pol": "pm25", "stamp": 1421402400, "aqi": "117", "lat": "38.524444", "idx": 1305, "x": 3847, "img": "_c_azyk0t0H_ZPvHZjB79pzuani-f-HT5FAA", "lon": "102.189444", "utime": "Friday 18:00", "covered_area": 0.43448373673048035}, {"city": "Wuqierling Factory, Wuhu (\u829c\u6e56\u4e94\u4e03\u4e8c\u96f6\u5382)", "pol": "pm25", "stamp": 1421402400, "aqi": "261", "lat": "31.383889", "idx": 1306, "x": 3597, "img": "_AR0A4v9DTjptZXAv6Iqc5rmWL-S6lOS4g-S6jOmbtuWOgg", "lon": "118.402222", "utime": "Friday 18:00", "covered_area": 3.656508487769644}, {"city": "Laonian University, Chuzhou (\u6ec1\u5dde\u8001\u5e74\u5927\u5b66)", "pol": "pm25", "stamp": 1421402400, "aqi": "189", "lat": "32.3153", "idx": 1307, "x": 5869, "img": "_ARoA5f9DTjptZXAv5ruB5beeL-iAgeW5tOWkp-Wtpg", "lon": "118.3094", "utime": "Friday 18:00", "covered_area": 2.141933715494865}, {"pol": "pm25", "img": "_c_azyk0t0H--e-vLGZv1n-5oerJr19MlywE", "lat": "31.4539", "x": 3599, "sutime": "2015-01-16 19:00:00", "city": "Municipal People\\'s Congress, Mianyang (\u7ef5\u9633\u5e02\u4eba\u5927)", "stamp": 1421406000, "aqi": "137", "idx": 940, "lon": "104.7536", "utime": "Friday 19:00", "covered_area": 1.8636540505972796}, {"city": "No.3 water company, Mianyang (\u7ef5\u9633\u4e09\u6c34\u5382)", "pol": "pm25", "stamp": 1421402400, "aqi": "119", "lat": "31.5072", "idx": 1319, "x": 3601, "img": "_c_azyk0t0H--e-vLGZv1n-zofLZhy9O-JgA", "lon": "104.7283", "utime": "Friday 18:00", "covered_area": 1.8102318424970067}, {"city": "Xixiaoqu, Deyang (\u5fb7\u9633\u897f\u5c0f\u533a)", "pol": "pm25", "stamp": 1421402400, "aqi": "134", "lat": "31.1333", "idx": 1415, "x": 3603, "img": "_c_azyk0t0H-6b_vLGZv1Xyzd_3RD_9OeXQA", "lon": "104.3883", "utime": "Friday 18:00", "covered_area": 2.3349016588104607}, {"city": "Hemenkou, Panzhihua (\u6500\u679d\u82b1\u6cb3\u95e8\u53e3)", "pol": "pm25", "stamp": 1421402400, "aqi": "109", "lat": "26.5928", "idx": 1235, "x": 3607, "img": "_ARoA5f9DTjptZXAv5pSA5p6d6IqxL-ays-mXqOWPow", "lon": "101.5769", "utime": "Friday 18:00", "covered_area": 0.7945713850237208}, {"city": "Jinjina, Panzhihua (\u6500\u679d\u82b1\u91d1\u6c5f)", "pol": "pm25", "stamp": 1421402400, "aqi": "63", "lat": "26.5569", "idx": 1309, "x": 3610, "img": "_c_azyk0t0H82peHZvLkvujbqv2yf-GzjfAA", "lon": "101.8472", "utime": "Friday 18:00", "covered_area": 0.7945713850237208}, {"city": "No. 4 middle school, Yibin (\u5b9c\u5bbe\u5b9c\u5bbe\u56db\u4e2d)", "pol": "pm25", "stamp": 1421402400, "aqi": "194", "lat": "28.7867", "idx": 1322, "x": 3613, "img": "_c_azyk0t0H-6bs7Tdfug1NPZs5_sWAsA", "lon": "104.6061", "utime": "Friday 18:00", "covered_area": 2.197255992832219}, {"pol": "pm25", "img": "_c_azyk0t0H-6bs7Tdfv0X-5uedk-8emMLQA", "lat": "28.7158", "x": 3615, "sutime": "2015-01-16 19:00:00", "city": "Huangjinzui, Yibin (\u5b9c\u5bbe\u9ec4\u91d1\u5634)", "stamp": 1421406000, "aqi": "188", "idx": 943, "lon": "104.5761", "utime": "Friday 19:00", "covered_area": 1.9733340598437525}, {"city": "No 2 middle school, Neijiang (\u5185\u6c5f\u5185\u6c5f\u4e8c\u4e2d)", "pol": "pm25", "stamp": 1421402400, "aqi": "250", "lat": "29.5817", "idx": 1430, "x": 5692, "img": "_c_azyk0t0H_a1vps43wo9WRXz5MdawE", "lon": "105.0653", "utime": "Friday 18:00", "covered_area": 2.1569139572179097}, {"city": "Yanma Road, Zigong (\u81ea\u8d21\u76d0\u9a6c\u8def)", "pol": "pm25", "stamp": 1421402400, "aqi": "234", "lat": "29.3586", "idx": 1193, "x": 3618, "img": "_c_azyk0t0H_RvurFloX6z2dPeLlyzYvt6wE", "lon": "104.7214", "utime": "Friday 18:00", "covered_area": 2.7990568806942946}, {"city": "Lantianxian Bridge, Luzhou (\u6cf8\u5dde\u5170\u7530\u5baa\u6865)", "pol": "pm25", "stamp": 1421402400, "aqi": "233", "lat": "28.8558", "idx": 1326, "x": 3623, "img": "_ARoA5f9DTjptZXAv5rO45beeL-WFsOeUsOWuquahpQ", "lon": "105.4322", "utime": "Friday 18:00", "covered_area": 1.460600465677043},